{
  "defaultRadius": 200,
  "pois": [{
    "name": "Sainsbury's",
    "longitude": -1.2628915,
    "latitude": 54.5530867,
    "address": "105 Acklam Road, Middlesbrough, TS5 5HR, United Kingdom",
    "meta": "0"
  }, {
    "name": "Sainsbury's",
    "longitude": -1.8219564,
    "latitude": 52.4465238,
    "address": "1102 Warwick Road, Birmingham, B27 6BG, United Kingdom",
    "meta": "1"
  }, {
    "name": "Sainsbury's",
    "longitude": -1.6942878,
    "latitude": 55.4006366,
    "address": "Wembley, HA0 1, United Kingdom",
    "meta": "2"
  }, {
    "name": "Sainsbury's",
    "longitude": -0.303415,
    "latitude": 51.5386127,
    "address": "Willowburn Avenue, Alnwick, NE66 2, United Kingdom",
    "meta": "3"
  }, {
    "name": "Sainsbury's",
    "longitude": -2.3057567,
    "latitude": 53.0959502,
    "address": "7 Crewe Road, Stoke-on-Trent, ST7 2EW, United Kingdom",
    "meta": "4"
  }, {
    "name": "Sainsbury's",
    "longitude": -0.9752118,
    "latitude": 51.1469584,
    "address": "Drayman's Way, Alton, GU34 1, United Kingdom",
    "meta": "5"
  }, {
    "name": "Sainsbury's",
    "longitude": -2.3505212,
    "latitude": 53.3844137,
    "address": "22 Lloyd Street, Altrincham, WA14 2SU, United Kingdom",
    "meta": "6"
  }, {
    "name": "Sainsbury's",
    "longitude": -2.1293275,
    "latitude": 52.4673565,
    "address": "49 Sandringham Way, Brierley Hill, DY5 3, United Kingdom",
    "meta": "7"
  }, {
    "name": "Sainsbury's",
    "longitude": -1.4814272,
    "latitude": 51.2060576,
    "address": "24 Bridge Street, Andover, SP10 1AA, United Kingdom",
    "meta": "8"
  }, {
    "name": "Sainsbury's",
    "longitude": -1.47783,
    "latitude": 51.2137253,
    "address": "Shepherds Spring Lane, Andover, SP10 1, United Kingdom",
    "meta": "9"
  }, {
    "name": "Sainsbury's",
    "longitude": -0.43049,
    "latitude": 53.7450835,
    "address": "26 Hull Road, Hull, HU10 6UA, United Kingdom",
    "meta": "10"
  }, {
    "name": "Sainsbury's",
    "longitude": -0.4655666,
    "latitude": 51.7362743,
    "address": "Apsley Mills Retail Park, Hemel Hempstead, HP3 9, United Kingdom",
    "meta": "11"
  }, {
    "name": "Sainsbury's",
    "longitude": -1.4928326,
    "latitude": 53.3448549,
    "address": "180 Archer Road, Sheffield, S8 0TD, United Kingdom",
    "meta": "12"
  }, {
    "name": "Sainsbury's",
    "longitude": -0.1314194,
    "latitude": 51.5643924,
    "address": "St Johns Villas, London, N19 3, United Kingdom",
    "meta": "13"
  }, {
    "name": "Sainsbury's",
    "longitude": -1.1354099,
    "latitude": 52.9991434,
    "address": "Sir John Robinson Way, Nottingham, NG5 0, United Kingdom",
    "meta": "14"
  }, {
    "name": "Sainsbury's",
    "longitude": -1.7334285,
    "latitude": 53.0150832,
    "address": "Lord Sheldon Way, Ashton-under-Lyne, M34 5, United Kingdom",
    "meta": "15"
  }, {
    "name": "Sainsbury's",
    "longitude": -2.1237184,
    "latitude": 53.4807975,
    "address": "Malbons Yard, Ashbourne, DE6 1, United Kingdom",
    "meta": "16"
  }, {
    "name": "Sainsbury's",
    "longitude": -1.4808834,
    "latitude": 53.5846086,
    "address": "62 Newstead Road, Barnsley, S71 3NA, United Kingdom",
    "meta": "17"
  }, {
    "name": "Sainsbury's",
    "longitude": 1.0137974,
    "latitude": 52.5159929,
    "address": "High Street, Attleborough, NR17 2, United Kingdom",
    "meta": "18"
  }, {
    "name": "Sainsbury's",
    "longitude": -1.0805903,
    "latitude": 54.5297108,
    "address": "89 Avenue Road, Bexleyheath, DA7 4EQ, United Kingdom",
    "meta": "19"
  }, {
    "name": "Sainsbury's",
    "longitude": 0.1320685,
    "latitude": 51.4621253,
    "address": "The Avenue, Guisborough, TS14 8, United Kingdom",
    "meta": "20"
  }, {
    "name": "Sainsbury's",
    "longitude": -0.8130274,
    "latitude": 51.8176114,
    "address": "12 Buckingham Street, Aylesbury, HP20 2LA, United Kingdom",
    "meta": "21"
  }, {
    "name": "Sainsbury's",
    "longitude": -1.3392312,
    "latitude": 51.0463813,
    "address": "Meadow Way, Winchester, SO22 4, United Kingdom",
    "meta": "22"
  }, {
    "name": "Sainsbury's",
    "longitude": -0.740365,
    "latitude": 51.3926487,
    "address": "Roby Drive, Bracknell, RG12 7, United Kingdom",
    "meta": "23"
  }, {
    "name": "Sainsbury's",
    "longitude": -1.1560342,
    "latitude": 53.5037775,
    "address": "9 Hall Flat Lane, Doncaster, DN4 8PU, United Kingdom",
    "meta": "24"
  }, {
    "name": "Sainsbury's",
    "longitude": -0.783964,
    "latitude": 53.0545568,
    "address": "London Road, Newark, NG24 3, United Kingdom",
    "meta": "25"
  }, {
    "name": "Sainsbury's",
    "longitude": -0.1520394,
    "latitude": 51.4443154,
    "address": "143 Balham High Road, London, SW12 9AU, United Kingdom",
    "meta": "26"
  }, {
    "name": "Sainsbury's",
    "longitude": -0.1476481,
    "latitude": 51.4523254,
    "address": "2 Hazelbourne Road, London, SW12 9, United Kingdom",
    "meta": "27"
  }, {
    "name": "Sainsbury's",
    "longitude": -2.669706,
    "latitude": 53.7230089,
    "address": "Cuerden Way, Preston, PR5 6, United Kingdom",
    "meta": "28"
  }, {
    "name": "Sainsbury's",
    "longitude": -1.3333967,
    "latitude": 52.0503946,
    "address": "44 The Hawthorns, Banbury, OX16 9FA, United Kingdom",
    "meta": "29"
  }, {
    "name": "Sainsbury's",
    "longitude": 0.082552,
    "latitude": 51.5880363,
    "address": "Ilford, IG6 1, United Kingdom",
    "meta": "30"
  }, {
    "name": "Sainsbury's",
    "longitude": -0.2553912,
    "latitude": 51.4702079,
    "address": "17 White Hart Lane, London, SW13 0NY, United Kingdom",
    "meta": "31"
  }, {
    "name": "Sainsbury's",
    "longitude": -4.0839448,
    "latitude": 51.0669766,
    "address": "Barnstaple, EX31 3, United Kingdom",
    "meta": "32"
  }, {
    "name": "Sainsbury's",
    "longitude": -2.2010077,
    "latitude": 51.8645778,
    "address": "Barnett Way, Gloucester, GL4 3, United Kingdom",
    "meta": "33"
  }, {
    "name": "Sainsbury's",
    "longitude": -1.0880352,
    "latitude": 51.2672405,
    "address": "Basingstoke, RG21 7, United Kingdom",
    "meta": "34"
  }, {
    "name": "Sainsbury's",
    "longitude": -2.3685492,
    "latitude": 51.3811239,
    "address": "Bath, BA1 2, United Kingdom",
    "meta": "35"
  }, {
    "name": "Sainsbury's",
    "longitude": -2.3629971,
    "latitude": 51.3815266,
    "address": "4 Monmouth Street, Bath, BA1 2AE, United Kingdom",
    "meta": "36"
  }, {
    "name": "Sainsbury's",
    "longitude": -0.1692043,
    "latitude": 51.4711337,
    "address": "314 Battersea Park Road, London, SW11 3BX, United Kingdom",
    "meta": "37"
  }, {
    "name": "Sainsbury's",
    "longitude": -0.6431737,
    "latitude": 51.610256,
    "address": "164 Maxwell Road, Beaconsfield, HP9 1QT, United Kingdom",
    "meta": "38"
  }, {
    "name": "Sainsbury's",
    "longitude": -0.1785635,
    "latitude": 51.4874631,
    "address": "136 Fulham Road, London, SW7 9QA, United Kingdom",
    "meta": "39"
  }, {
    "name": "Sainsbury's",
    "longitude": -0.0302578,
    "latitude": 51.4065748,
    "address": "181 High Street, Beckenham, BR3 1AH, United Kingdom",
    "meta": "40"
  }, {
    "name": "Sainsbury's",
    "longitude": -1.135181,
    "latitude": 53.9588334,
    "address": "Beckfield Lane, York, YO26 5, United Kingdom",
    "meta": "41"
  }, {
    "name": "Sainsbury's",
    "longitude": 0.0631504,
    "latitude": 51.5204651,
    "address": "London, E6 6, United Kingdom",
    "meta": "42"
  }, {
    "name": "Sainsbury's",
    "longitude": -1.1431334,
    "latitude": 52.6282888,
    "address": "Western Boulevard, Leicester, LE2 7, United Kingdom",
    "meta": "43"
  }, {
    "name": "Sainsbury's",
    "longitude": -1.4060256,
    "latitude": 50.9117408,
    "address": "86 Bedford Place, Southampton, SO15 2YH, United Kingdom",
    "meta": "44"
  }, {
    "name": "Sainsbury's",
    "longitude": -1.2141414,
    "latitude": 52.9284776,
    "address": "Nottingham, NG9 2, United Kingdom",
    "meta": "45"
  }, {
    "name": "Sainsbury's",
    "longitude": -1.1240002,
    "latitude": 52.6479005,
    "address": "Belgrave Road, Leicester, LE4 6, United Kingdom",
    "meta": "46"
  }, {
    "name": "Sainsbury's",
    "longitude": -0.0812155,
    "latitude": 51.4973364,
    "address": "3 Bermondsey Square, London, SE1 3, United Kingdom",
    "meta": "47"
  }, {
    "name": "Sainsbury's",
    "longitude": -0.4159689,
    "latitude": 53.7303865,
    "address": "63 Bethune Avenue, Hull, HU4 7EH, United Kingdom",
    "meta": "48"
  }, {
    "name": "Sainsbury's",
    "longitude": -0.3538977,
    "latitude": 53.7689287,
    "address": "457 Beverley Road, Hull, HU6 7LE, United Kingdom",
    "meta": "49"
  }, {
    "name": "Sainsbury's",
    "longitude": 0.4708733,
    "latitude": 50.8411669,
    "address": "1 Buckhurst Place, Bexhill on Sea, TN39 3NY, United Kingdom",
    "meta": "50"
  }, {
    "name": "Sainsbury's",
    "longitude": 0.148033,
    "latitude": 51.4561334,
    "address": "Norwich Place, Bexleyheath, DA6 7, United Kingdom",
    "meta": "51"
  }, {
    "name": "Sainsbury's",
    "longitude": -0.2727007,
    "latitude": 52.0939518,
    "address": "Bells Brook, Biggleswade, SG18 0, United Kingdom",
    "meta": "52"
  }, {
    "name": "Sainsbury's",
    "longitude": -1.3091922,
    "latitude": 54.6121286,
    "address": "2 Burniston Drive, Billingham, TS22 5DD, United Kingdom",
    "meta": "53"
  }, {
    "name": "Sainsbury's",
    "longitude": -0.9528778,
    "latitude": 52.9518258,
    "address": "8 Market Street, Nottingham, NG13 8AB, United Kingdom",
    "meta": "54"
  }, {
    "name": "Sainsbury's",
    "longitude": -2.2045961,
    "latitude": 53.4429761,
    "address": "Fallowfield Retail Park, Manchester, M14 6, United Kingdom",
    "meta": "55"
  }, {
    "name": "Sainsbury's",
    "longitude": -3.045134,
    "latitude": 53.3739084,
    "address": "Birkenhead, CH42 8, United Kingdom",
    "meta": "56"
  }, {
    "name": "Sainsbury's",
    "longitude": -1.8880604,
    "latitude": 52.4476543,
    "address": "11 Devoils Lane, Bishops Stortford, CM23 3XH, United Kingdom",
    "meta": "57"
  }, {
    "name": "Sainsbury's",
    "longitude": 0.1602683,
    "latitude": 51.8709441,
    "address": "99 Alcester Road, Birmingham, B13 8HS, United Kingdom",
    "meta": "58"
  }, {
    "name": "Sainsbury's",
    "longitude": -1.3607398,
    "latitude": 54.5778519,
    "address": "Bothal Drive, Stockton-on-Tees, TS19 8, United Kingdom",
    "meta": "59"
  }, {
    "name": "Sainsbury's",
    "longitude": -2.588763,
    "latitude": 51.4805162,
    "address": "299 Gloucester Road, Bristol, BS7 8PB, United Kingdom",
    "meta": "60"
  }, {
    "name": "Sainsbury's",
    "longitude": -1.085735,
    "latitude": 53.9509641,
    "address": "7 Scarcroft Road, York, YO23 1ND, United Kingdom",
    "meta": "61"
  }, {
    "name": "Sainsbury's",
    "longitude": -1.3612891,
    "latitude": 50.9141995,
    "address": "Angel Crescent, Southampton, SO18 5, United Kingdom",
    "meta": "62"
  }, {
    "name": "Sainsbury's",
    "longitude": -1.3592951,
    "latitude": 50.9165473,
    "address": "Southampton, SO18 6, United Kingdom",
    "meta": "63"
  }, {
    "name": "Sainsbury's",
    "longitude": -3.2407337,
    "latitude": 55.9565552,
    "address": "165 Craigleith Road, Edinburgh, EH4 2EB, United Kingdom",
    "meta": "64"
  }, {
    "name": "Sainsbury's",
    "longitude": -2.0398937,
    "latitude": 52.4750846,
    "address": "163 Halesowen Street, Rowley Regis, B65 0HG, United Kingdom",
    "meta": "65"
  }, {
    "name": "Sainsbury's",
    "longitude": -2.1961446,
    "latitude": 52.2109206,
    "address": "Windermere Drive, Worcester, WR4 9, United Kingdom",
    "meta": "66"
  }, {
    "name": "Sainsbury's",
    "longitude": -0.7329661,
    "latitude": 51.9932244,
    "address": "21 Oliver Road, Milton Keynes, MK2 2LP, United Kingdom",
    "meta": "67"
  }, {
    "name": "Sainsbury's",
    "longitude": -1.0935509,
    "latitude": 53.9541866,
    "address": "58 Blossom Street, York, YO24 1AP, United Kingdom",
    "meta": "68"
  }, {
    "name": "Sainsbury's",
    "longitude": -4.7268935,
    "latitude": 50.4735722,
    "address": "Cardell Road, Bodmin, PL31 2, United Kingdom",
    "meta": "69"
  }, {
    "name": "Sainsbury's",
    "longitude": -2.4313114,
    "latitude": 53.5724247,
    "address": "Lecturers Close, Bolton, BL3 6, United Kingdom",
    "meta": "70"
  }, {
    "name": "Sainsbury's",
    "longitude": -1.085808,
    "latitude": 53.9631645,
    "address": "10 Bootham, York, YO30 7EW, United Kingdom",
    "meta": "71"
  }, {
    "name": "Sainsbury's",
    "longitude": -0.0921705,
    "latitude": 51.5026112,
    "address": "128 Borough High Street, London, SE1 1LB, United Kingdom",
    "meta": "72"
  }, {
    "name": "Sainsbury's",
    "longitude": -1.8373176,
    "latitude": 50.7268481,
    "address": "26 Hawkwood Road, Bournemouth, BH5 1, United Kingdom",
    "meta": "73"
  }, {
    "name": "Sainsbury's",
    "longitude": -4.2614328,
    "latitude": 55.8610771,
    "address": "75 Bothwell Street, Glasgow, G2 6, United Kingdom",
    "meta": "74"
  }, {
    "name": "Sainsbury's",
    "longitude": -0.3815033,
    "latitude": 52.7704751,
    "address": "19 Exeter Street, Bourne, PE10 9, United Kingdom",
    "meta": "75"
  }, {
    "name": "Sainsbury's",
    "longitude": -0.7509591,
    "latitude": 51.4152456,
    "address": "The Ring, Bracknell, RG12 1, United Kingdom",
    "meta": "76"
  }, {
    "name": "Sainsbury's",
    "longitude": -1.7116575,
    "latitude": 53.8294637,
    "address": "Bradford, BD10 0, United Kingdom",
    "meta": "77"
  }, {
    "name": "Sainsbury's",
    "longitude": -2.2522042,
    "latitude": 51.3363652,
    "address": "Elmcross Business Park, Bradford on Avon, BA15 2, United Kingdom",
    "meta": "78"
  }, {
    "name": "Sainsbury's",
    "longitude": -4.3648297,
    "latitude": 55.8760076,
    "address": "Glasgow, G51 4, United Kingdom",
    "meta": "79"
  }, {
    "name": "Sainsbury's",
    "longitude": 0.5525515,
    "latitude": 51.8789215,
    "address": "Tofts Walk, Braintree, CM7 1, United Kingdom",
    "meta": "80"
  }, {
    "name": "Sainsbury's",
    "longitude": -0.436596,
    "latitude": 51.9193144,
    "address": "Quantock Rise, Luton, LU3 4, United Kingdom",
    "meta": "81"
  }, {
    "name": "Sainsbury's",
    "longitude": -1.6332482,
    "latitude": 54.7488821,
    "address": "19 Grove Road, Durham, DH7 8AW, United Kingdom",
    "meta": "82"
  }, {
    "name": "Sainsbury's",
    "longitude": -1.6496199,
    "latitude": 52.7885402,
    "address": "60 Burton Road, Burton upon Trent, DE14 3DW, United Kingdom",
    "meta": "83"
  }, {
    "name": "Sainsbury's",
    "longitude": -1.3069174,
    "latitude": 53.4214446,
    "address": "21 Brecks Crescent, Rotherham, S65 3HZ, United Kingdom",
    "meta": "84"
  }, {
    "name": "Sainsbury's",
    "longitude": 0.3026405,
    "latitude": 51.6221395,
    "address": "62 North Road Avenue, Brentwood, CM14 4XN, United Kingdom",
    "meta": "85"
  }, {
    "name": "Sainsbury's",
    "longitude": -0.2836494,
    "latitude": 52.5912019,
    "address": "Flaxland, Peterborough, PE3 8, United Kingdom",
    "meta": "86"
  }, {
    "name": "Sainsbury's",
    "longitude": -0.3877742,
    "latitude": 53.7669042,
    "address": "238 Bricknell Avenue, Hull, HU5 4QG, United Kingdom",
    "meta": "87"
  }, {
    "name": "Sainsbury's",
    "longitude": -1.7047211,
    "latitude": 52.1927305,
    "address": "24 Bridge Street, Stratford upon Avon, CV37 6AS, United Kingdom",
    "meta": "88"
  }, {
    "name": "Sainsbury's",
    "longitude": -1.8104965,
    "latitude": 51.5580274,
    "address": "Swindon, SN5 7, United Kingdom",
    "meta": "89"
  }, {
    "name": "Sainsbury's",
    "longitude": -3.5744059,
    "latitude": 51.5303316,
    "address": "63 Whitburn Street, Bridgnorth, WV16 4QP, United Kingdom",
    "meta": "90"
  }, {
    "name": "Sainsbury's",
    "longitude": -2.4221119,
    "latitude": 52.5359677,
    "address": "Bridgend, CF32 9, United Kingdom",
    "meta": "91"
  }, {
    "name": "Sainsbury's",
    "longitude": -2.9994299,
    "latitude": 51.131845,
    "address": "The Clink, Bridgwater, TA6 5, United Kingdom",
    "meta": "92"
  }, {
    "name": "Sainsbury's",
    "longitude": -1.7776983,
    "latitude": 53.7013214,
    "address": "Brighouse, HD6 1, United Kingdom",
    "meta": "93"
  }, {
    "name": "Sainsbury's",
    "longitude": -0.1382561,
    "latitude": 50.8312743,
    "address": "New England Street, Brighton, BN1 4, United Kingdom",
    "meta": "94"
  }, {
    "name": "Sainsbury's",
    "longitude": -0.1503281,
    "latitude": 50.8245521,
    "address": "145 Western Road, Brighton, BN1 2DA, United Kingdom",
    "meta": "95"
  }, {
    "name": "Sainsbury's",
    "longitude": -1.9131989,
    "latitude": 52.4784952,
    "address": "Atlas Way, Birmingham, B1 2, United Kingdom",
    "meta": "96"
  }, {
    "name": "Sainsbury's",
    "longitude": -0.1242578,
    "latitude": 51.446715,
    "address": "272 Brixton Hill, London, SW2 1HP, United Kingdom",
    "meta": "97"
  }, {
    "name": "Sainsbury's",
    "longitude": -0.115043,
    "latitude": 51.4627857,
    "address": "427 Brixton Road, London, SW9 8HE, United Kingdom",
    "meta": "98"
  }, {
    "name": "Sainsbury's",
    "longitude": -0.9708457,
    "latitude": 51.4553407,
    "address": "124 Broad Street, Reading, RG1 2, United Kingdom",
    "meta": "99"
  }, {
    "name": "Sainsbury's",
    "longitude": -1.1727226,
    "latitude": 50.8581161,
    "address": "Broadcut, Fareham, PO16 8, United Kingdom",
    "meta": "100"
  }, {
    "name": "Sainsbury's",
    "longitude": 0.0140862,
    "latitude": 51.4063236,
    "address": "1 Walters Yard, Bromley, BR1 1QA, United Kingdom",
    "meta": "101"
  }, {
    "name": "Sainsbury's",
    "longitude": -0.1647405,
    "latitude": 51.4992893,
    "address": "54 Bagshot Road, Woking, GU21 2RF, United Kingdom",
    "meta": "102"
  }, {
    "name": "Sainsbury's",
    "longitude": -0.625509,
    "latitude": 51.3119883,
    "address": "112 Brompton Road, London, SW3 1JJ, United Kingdom",
    "meta": "103"
  }, {
    "name": "Sainsbury's",
    "longitude": -0.5738029,
    "latitude": 53.7278369,
    "address": "36 Skillings Lane, Brough, HU15 1BA, United Kingdom",
    "meta": "104"
  }, {
    "name": "Sainsbury's",
    "longitude": -1.2159012,
    "latitude": 54.5435259,
    "address": "38 Broughton Avenue, Middlesbrough, TS4 3PZ, United Kingdom",
    "meta": "105"
  }, {
    "name": "Sainsbury's",
    "longitude": -1.3738842,
    "latitude": 52.5385557,
    "address": "Brunel Road, Hinckley, LE10 0, United Kingdom",
    "meta": "106"
  }, {
    "name": "Sainsbury's",
    "longitude": -4.2524888,
    "latitude": 55.8630182,
    "address": "42 Dundas Street, Glasgow, G1 2AQ, United Kingdom",
    "meta": "107"
  }, {
    "name": "Sainsbury's",
    "longitude": -2.2481563,
    "latitude": 53.7904344,
    "address": "Active Way, Burnley, BB11 1, United Kingdom",
    "meta": "108"
  }, {
    "name": "Sainsbury's",
    "longitude": -0.5445637,
    "latitude": 51.260525,
    "address": "Clay Lane, Guildford, GU4 7, United Kingdom",
    "meta": "109"
  }, {
    "name": "Sainsbury's",
    "longitude": -0.6790359,
    "latitude": 52.3619809,
    "address": "124 High Street, Kettering, NN15 5RL, United Kingdom",
    "meta": "110"
  }, {
    "name": "Sainsbury's",
    "longitude": -1.6353155,
    "latitude": 52.802599,
    "address": "52 Union Street, Burton upon Trent, DE14 1AJ, United Kingdom",
    "meta": "111"
  }, {
    "name": "Sainsbury's",
    "longitude": -1.0874212,
    "latitude": 53.9723347,
    "address": "204 Burton Stone Lane, York, YO30 6, United Kingdom",
    "meta": "112"
  }, {
    "name": "Sainsbury's",
    "longitude": -1.6368388,
    "latitude": 52.8143448,
    "address": "243 Horninglow Road, Burton upon Trent, DE14 2PZ, United Kingdom",
    "meta": "113"
  }, {
    "name": "Sainsbury's",
    "longitude": 0.7378343,
    "latitude": 52.2397977,
    "address": "4 Simone Weil Avenue, Ashford, TN24 8YN, United Kingdom",
    "meta": "114"
  }, {
    "name": "Sainsbury's",
    "longitude": 0.8672652,
    "latitude": 51.1586992,
    "address": "Bedingfeld Way, Bury St Edmunds, IP32 7, United Kingdom",
    "meta": "115"
  }, {
    "name": "Sainsbury's",
    "longitude": -1.0620869,
    "latitude": 51.4429125,
    "address": "Reading, RG31 7, United Kingdom",
    "meta": "116"
  }, {
    "name": "Sainsbury's",
    "longitude": -2.002238,
    "latitude": 51.4386719,
    "address": "The Pippin, Calne, SN11 8, United Kingdom",
    "meta": "117"
  }, {
    "name": "Sainsbury's",
    "longitude": -1.0818833,
    "latitude": 53.0371621,
    "address": "Nottingham, NG14 6, United Kingdom",
    "meta": "118"
  }, {
    "name": "Sainsbury's",
    "longitude": -0.7464111,
    "latitude": 51.3375503,
    "address": "Camberley, GU15 3, United Kingdom",
    "meta": "119"
  }, {
    "name": "Sainsbury's",
    "longitude": -0.1405314,
    "latitude": 51.5402606,
    "address": "44 Camden Road, London, NW1 9DR, United Kingdom",
    "meta": "120"
  }, {
    "name": "Sainsbury's",
    "longitude": -3.1637879,
    "latitude": 55.9272261,
    "address": "Edinburgh, EH16 5, United Kingdom",
    "meta": "121"
  }, {
    "name": "Sainsbury's",
    "longitude": -1.5549936,
    "latitude": 52.4015275,
    "address": "Renown Avenue, Coventry, CV4 9, United Kingdom",
    "meta": "122"
  }, {
    "name": "Sainsbury's",
    "longitude": -2.0200063,
    "latitude": 52.6745708,
    "address": "Kingsmead Road, Canterbury, CT1 1, United Kingdom",
    "meta": "123"
  }, {
    "name": "Sainsbury's",
    "longitude": 1.0858566,
    "latitude": 51.2850942,
    "address": "Cannock, WS11 8, United Kingdom",
    "meta": "124"
  }, {
    "name": "Sainsbury's",
    "longitude": 0.5932922,
    "latitude": 51.5223897,
    "address": "Canvey Island, SS8 7, United Kingdom",
    "meta": "125"
  }, {
    "name": "Sainsbury's",
    "longitude": -3.1723693,
    "latitude": 51.4829735,
    "address": "135 Queen Street, Cardiff, CF10 2BJ, United Kingdom",
    "meta": "126"
  }, {
    "name": "Sainsbury's",
    "longitude": -1.1654328,
    "latitude": 52.9452074,
    "address": "Castle Bridge Road, Nottingham, NG7 1, United Kingdom",
    "meta": "127"
  }, {
    "name": "Sainsbury's",
    "longitude": -2.5610235,
    "latitude": 51.4432429,
    "address": "Yatesbury Avenue, Birmingham, B35 6, United Kingdom",
    "meta": "128"
  }, {
    "name": "Sainsbury's",
    "longitude": -2.9905511,
    "latitude": 53.4058291,
    "address": "St Philips Causeway, Bristol, BS4 3, United Kingdom",
    "meta": "129"
  }, {
    "name": "Sainsbury's",
    "longitude": -1.7971648,
    "latitude": 52.5172852,
    "address": "44 Castle Street, Liverpool, L2 7, United Kingdom",
    "meta": "130"
  }, {
    "name": "Sainsbury's",
    "longitude": -1.8447554,
    "latitude": 50.7520364,
    "address": "Bournemouth, BH8 9, United Kingdom",
    "meta": "131"
  }, {
    "name": "Sainsbury's",
    "longitude": -0.100116,
    "latitude": 51.3766173,
    "address": "1030 Wellesley Road, Croydon, CR9 1, United Kingdom",
    "meta": "132"
  }, {
    "name": "Sainsbury's",
    "longitude": -1.4372968,
    "latitude": 52.9168907,
    "address": "Wyvern Way, Derby, DE21 6, United Kingdom",
    "meta": "133"
  }, {
    "name": "Sainsbury's",
    "longitude": 0.133661,
    "latitude": 51.5713653,
    "address": "105 High Road, Romford, RM6 6PB, United Kingdom",
    "meta": "134"
  }, {
    "name": "Sainsbury's",
    "longitude": 0.2911357,
    "latitude": 51.4906836,
    "address": "Howard Road, Grays, RM16 6, United Kingdom",
    "meta": "135"
  }, {
    "name": "Sainsbury's",
    "longitude": -0.1499837,
    "latitude": 51.5431182,
    "address": "58 Chalk Farm Road, London, NW1 8AN, United Kingdom",
    "meta": "136"
  }, {
    "name": "Sainsbury's",
    "longitude": -0.3738648,
    "latitude": 53.755378,
    "address": "Lynton Avenue, Hull, HU5 3, United Kingdom",
    "meta": "137"
  }, {
    "name": "Sainsbury's",
    "longitude": -1.713696,
    "latitude": 54.9913595,
    "address": "31 Chapel House Drive, Newcastle upon Tyne, NE5 1AA, United Kingdom",
    "meta": "138"
  }, {
    "name": "Sainsbury's",
    "longitude": -0.1301859,
    "latitude": 51.515566,
    "address": "155 Charing Cross Road, London, WC2H 0, United Kingdom",
    "meta": "139"
  }, {
    "name": "Sainsbury's",
    "longitude": 0.5256446,
    "latitude": 51.3836889,
    "address": "The Pentagon, Chatham, ME4 4, United Kingdom",
    "meta": "140"
  }, {
    "name": "Sainsbury's",
    "longitude": -2.2170649,
    "latitude": 53.3761022,
    "address": "Wilmslow Road, Cheadle, SK8 3, United Kingdom",
    "meta": "141"
  }, {
    "name": "Sainsbury's",
    "longitude": -0.215717,
    "latitude": 51.3579152,
    "address": "13 High Street, Sutton, SM3 8RF, United Kingdom",
    "meta": "142"
  }, {
    "name": "Sainsbury's",
    "longitude": -0.503876,
    "latitude": 51.3908951,
    "address": "Beomonds Row, Chertsey, KT16 9, United Kingdom",
    "meta": "143"
  }, {
    "name": "Sainsbury's",
    "longitude": -0.6127004,
    "latitude": 51.7074757,
    "address": "Elgiva Lane, Chesham, HP5 2, United Kingdom",
    "meta": "144"
  }, {
    "name": "Sainsbury's",
    "longitude": -0.2988363,
    "latitude": 51.364323,
    "address": "26 North Parade, Chessington, KT9 1QL, United Kingdom",
    "meta": "145"
  }, {
    "name": "Sainsbury's",
    "longitude": -2.8564702,
    "latitude": 53.1828882,
    "address": "6 The Avenue, Chester le Street, DH2 2DE, United Kingdom",
    "meta": "146"
  }, {
    "name": "Sainsbury's",
    "longitude": -1.5819237,
    "latitude": 54.8542469,
    "address": "Chester, CH3 5, United Kingdom",
    "meta": "147"
  }, {
    "name": "Sainsbury's",
    "longitude": -1.4182863,
    "latitude": 53.2540518,
    "address": "Chesterfield, S41 0, United Kingdom",
    "meta": "148"
  }, {
    "name": "Sainsbury's",
    "longitude": -0.7583979,
    "latitude": 50.8432873,
    "address": "Westhampnett Road, Chichester, PO19 7, United Kingdom",
    "meta": "149"
  }, {
    "name": "Sainsbury's",
    "longitude": -1.2391764,
    "latitude": 52.9197881,
    "address": "30 Blenheim Drive, Nottingham, NG9 5ES, United Kingdom",
    "meta": "150"
  }, {
    "name": "Sainsbury's",
    "longitude": -0.0192549,
    "latitude": 51.616947,
    "address": "15 Hall Lane, London, E4 8HH, United Kingdom",
    "meta": "151"
  }, {
    "name": "Sainsbury's",
    "longitude": -2.1474617,
    "latitude": 51.4478669,
    "address": "CM16 6, England, United Kingdom",
    "meta": "152"
  }, {
    "name": "Sainsbury's",
    "longitude": 0.1784973,
    "latitude": 51.7054505,
    "address": "Bath Road, Chippenham, SN14 0, United Kingdom",
    "meta": "153"
  }, {
    "name": "Sainsbury's",
    "longitude": 0.0663306,
    "latitude": 51.419352,
    "address": "High Street, Chislehurst, BR7 5, United Kingdom",
    "meta": "154"
  }, {
    "name": "Sainsbury's",
    "longitude": -0.2644373,
    "latitude": 51.4931484,
    "address": "Essex Place, London, W4 5, United Kingdom",
    "meta": "155"
  }, {
    "name": "Sainsbury's",
    "longitude": -0.2528144,
    "latitude": 51.4928253,
    "address": "97 Chiswick High Road, London, W4 1PU, United Kingdom",
    "meta": "156"
  }, {
    "name": "Sainsbury's",
    "longitude": -1.7417686,
    "latitude": 50.7442817,
    "address": "Christchurch, BH23 4, United Kingdom",
    "meta": "157"
  }, {
    "name": "Sainsbury's",
    "longitude": 1.1543781,
    "latitude": 51.7901369,
    "address": "14 High Street, Clacton-on-Sea, CO15 1NR, United Kingdom",
    "meta": "158"
  }, {
    "name": "Sainsbury's",
    "longitude": -0.136077,
    "latitude": 51.4625399,
    "address": "152 Clapham High Street, London, SW4 7SL, United Kingdom",
    "meta": "159"
  }, {
    "name": "Sainsbury's",
    "longitude": -0.1316274,
    "latitude": 51.4642147,
    "address": "28 Clapham High Street, London, SW4 7UR, United Kingdom",
    "meta": "160"
  }, {
    "name": "Sainsbury's",
    "longitude": -0.1691124,
    "latitude": 51.4637165,
    "address": "Clapham Junction Approach, London, SW11 1, United Kingdom",
    "meta": "161"
  }, {
    "name": "Sainsbury's",
    "longitude": -1.1173272,
    "latitude": 52.6180206,
    "address": "65 Queens Road, Leicester, LE2 1TT, United Kingdom",
    "meta": "162"
  }, {
    "name": "Sainsbury's",
    "longitude": -0.0308955,
    "latitude": 53.5591414,
    "address": "46 St Peter's Avenue, Cleethorpes, DN35 8HF, United Kingdom",
    "meta": "163"
  }, {
    "name": "Sainsbury's",
    "longitude": -2.6107834,
    "latitude": 51.463953,
    "address": "8 Clifton Way, Hinckley, LE10 0XN, United Kingdom",
    "meta": "164"
  }, {
    "name": "Sainsbury's",
    "longitude": -1.3883378,
    "latitude": 52.5435423,
    "address": "Bristol, BS8 2, United Kingdom",
    "meta": "165"
  }, {
    "name": "Sainsbury's",
    "longitude": -2.3919567,
    "latitude": 53.8705569,
    "address": "10 Moor Lane, Clitheroe, BB7 1BE, United Kingdom",
    "meta": "166"
  }, {
    "name": "Sainsbury's",
    "longitude": -1.5695134,
    "latitude": 54.623577,
    "address": "17 Burn Lane, Newton Aycliffe, DL5 4HX, United Kingdom",
    "meta": "167"
  }, {
    "name": "Sainsbury's",
    "longitude": -0.4214715,
    "latitude": 51.3358885,
    "address": "Bridge Way, Cobham, KT11 1, United Kingdom",
    "meta": "168"
  }, {
    "name": "Sainsbury's",
    "longitude": -3.3642772,
    "latitude": 54.6620258,
    "address": "Station Road, Cockermouth, CA13 9, United Kingdom",
    "meta": "169"
  }, {
    "name": "Sainsbury's",
    "longitude": 0.9030242,
    "latitude": 51.8885599,
    "address": "7 Priory Walk, Colchester, CO1 1LG, United Kingdom",
    "meta": "170"
  }, {
    "name": "Sainsbury's",
    "longitude": -3.1482766,
    "latitude": 51.4954234,
    "address": "Fforrd Nowell, Cardiff, CF23 9, United Kingdom",
    "meta": "171"
  }, {
    "name": "Sainsbury's",
    "longitude": -1.5484402,
    "latitude": 53.9895786,
    "address": "73 Cold Bath Road, Harrogate, HG2 0NT, United Kingdom",
    "meta": "172"
  }, {
    "name": "Sainsbury's",
    "longitude": 0.1564004,
    "latitude": 52.1977831,
    "address": "98 Brooks Road, Cambridge, CB1 3, United Kingdom",
    "meta": "173"
  }, {
    "name": "Sainsbury's",
    "longitude": -1.2307873,
    "latitude": 53.4825341,
    "address": "42 Church Street, Doncaster, DN12 3HP, United Kingdom",
    "meta": "174"
  }, {
    "name": "Sainsbury's",
    "longitude": -0.2138881,
    "latitude": 51.9209131,
    "address": "Hitchin Road, Stevenage, SG1 4, United Kingdom",
    "meta": "175"
  }, {
    "name": "Sainsbury's",
    "longitude": -1.038906,
    "latitude": 52.9121394,
    "address": "26 King Street, Cottingham, HU16 5QE, United Kingdom",
    "meta": "176"
  }, {
    "name": "Sainsbury's",
    "longitude": -0.4139297,
    "latitude": 53.7809798,
    "address": "19 Bingham Road, Nottingham, NG12 3, United Kingdom",
    "meta": "177"
  }, {
    "name": "Sainsbury's",
    "longitude": -1.6265814,
    "latitude": 54.6605178,
    "address": "103 Collingwood Street, Bishop Auckland, DL14 8LL, United Kingdom",
    "meta": "178"
  }, {
    "name": "Sainsbury's",
    "longitude": -1.4822623,
    "latitude": 52.4274971,
    "address": "Austin Drive, Coventry, CV6 7, United Kingdom",
    "meta": "179"
  }, {
    "name": "Sainsbury's",
    "longitude": -1.5094714,
    "latitude": 52.4095482,
    "address": "1 Trinity Street, Coventry, CV1 1, United Kingdom",
    "meta": "180"
  }, {
    "name": "Sainsbury's",
    "longitude": -1.5886502,
    "latitude": 55.0197537,
    "address": "Newcastle upon Tyne, NE12 8, United Kingdom",
    "meta": "181"
  }, {
    "name": "Sainsbury's",
    "longitude": -0.4909047,
    "latitude": 51.1415365,
    "address": "High Street, Cranleigh, GU6 8, United Kingdom",
    "meta": "182"
  }, {
    "name": "Sainsbury's",
    "longitude": -0.1847626,
    "latitude": 51.1154844,
    "address": "35 Queensway, Crawley, RH10 1EG, United Kingdom",
    "meta": "183"
  }, {
    "name": "Sainsbury's",
    "longitude": 0.1794286,
    "latitude": 51.4493104,
    "address": "Station Approach, Dartford, DA1 3, United Kingdom",
    "meta": "184"
  }, {
    "name": "Sainsbury's",
    "longitude": -1.2471846,
    "latitude": 54.5671984,
    "address": "85 Crescent Road, Middlesbrough, TS1 4, United Kingdom",
    "meta": "185"
  }, {
    "name": "Sainsbury's",
    "longitude": -2.4410967,
    "latitude": 53.0886544,
    "address": "64 High Street, Wakefield, WF4 1, United Kingdom",
    "meta": "186"
  }, {
    "name": "Sainsbury's",
    "longitude": -1.4276454,
    "latitude": 53.6551411,
    "address": "7 Edleston Road, Crewe, CW2 7HJ, United Kingdom",
    "meta": "187"
  }, {
    "name": "Sainsbury's",
    "longitude": -0.1878734,
    "latitude": 51.4955357,
    "address": "London, SW7 4, United Kingdom",
    "meta": "188"
  }, {
    "name": "Sainsbury's",
    "longitude": -3.0262589,
    "latitude": 53.4924323,
    "address": "Crowborough Hill, Crowborough, TN6 2, United Kingdom",
    "meta": "189"
  }, {
    "name": "Sainsbury's",
    "longitude": 0.1882397,
    "latitude": 51.0475454,
    "address": "6 Liverpool Road, Liverpool, L23 2, United Kingdom",
    "meta": "190"
  }, {
    "name": "Sainsbury's",
    "longitude": -0.0865642,
    "latitude": 51.3992127,
    "address": "179 Whitehorse Lane, London, SE25 6RB, United Kingdom",
    "meta": "191"
  }, {
    "name": "Sainsbury's",
    "longitude": -1.3513712,
    "latitude": 53.3420273,
    "address": "Sheffield, S20 7, United Kingdom",
    "meta": "192"
  }, {
    "name": "Sainsbury's",
    "longitude": -2.5204743,
    "latitude": 53.4526387,
    "address": "7 Common Lane, Warrington, WA3 4EH, United Kingdom",
    "meta": "193"
  }, {
    "name": "Sainsbury's",
    "longitude": -3.0252493,
    "latitude": 51.6527446,
    "address": "Cwmbran Drive, Cwmbran, NP44 3, United Kingdom",
    "meta": "194"
  }, {
    "name": "Sainsbury's",
    "longitude": -0.0739826,
    "latitude": 51.5476773,
    "address": "30 Ridley Road, London, E8 2LX, United Kingdom",
    "meta": "195"
  }, {
    "name": "Sainsbury's",
    "longitude": -1.5537238,
    "latitude": 54.5217775,
    "address": "70 Victoria Road, Darlington, DL1 5, United Kingdom",
    "meta": "196"
  }, {
    "name": "Sainsbury's",
    "longitude": -1.5504821,
    "latitude": 54.5203079,
    "address": "16 Clifton Road, Darlington, DL1 5DS, United Kingdom",
    "meta": "197"
  }, {
    "name": "Sainsbury's",
    "longitude": -1.5541793,
    "latitude": 54.5316622,
    "address": "28 Corporation Road, Darlington, DL3 6, United Kingdom",
    "meta": "198"
  }, {
    "name": "Sainsbury's",
    "longitude": -4.3407468,
    "latitude": 55.8050745,
    "address": "Glasgow, G53 7, United Kingdom",
    "meta": "199"
  }, {
    "name": "Sainsbury's",
    "longitude": 0.2163717,
    "latitude": 51.4439525,
    "address": "Admiral Court, Dartmouth, TQ6 9, United Kingdom",
    "meta": "200"
  }, {
    "name": "Sainsbury's",
    "longitude": -3.605117,
    "latitude": 50.347784,
    "address": "Dartford, DA1 2, United Kingdom",
    "meta": "201"
  }, {
    "name": "Sainsbury's",
    "longitude": -2.4656607,
    "latitude": 53.6934475,
    "address": "Hardman Way, Darwen, BB3 2, United Kingdom",
    "meta": "202"
  }, {
    "name": "Sainsbury's",
    "longitude": 1.4003951,
    "latitude": 51.2241434,
    "address": "Anchor Lane, Deal, CT14 6, United Kingdom",
    "meta": "203"
  }, {
    "name": "Sainsbury's",
    "longitude": -2.2498311,
    "latitude": 53.4778759,
    "address": "Burton Road, Loughton, IG10 3, United Kingdom",
    "meta": "204"
  }, {
    "name": "Sainsbury's",
    "longitude": 0.082668,
    "latitude": 51.6465977,
    "address": "246 Deansgate, Manchester, M3 4, United Kingdom",
    "meta": "205"
  }, {
    "name": "Sainsbury's",
    "longitude": -2.1326141,
    "latitude": 53.4547339,
    "address": "Manchester, M34 3, United Kingdom",
    "meta": "206"
  }, {
    "name": "Sainsbury's",
    "longitude": -1.4728516,
    "latitude": 52.9202038,
    "address": "23 Albion Street, Derby, DE1 2NQ, United Kingdom",
    "meta": "207"
  }, {
    "name": "Sainsbury's",
    "longitude": -1.9923549,
    "latitude": 51.3524353,
    "address": "19 Monday Market Street, Devizes, SN10 1DN, United Kingdom",
    "meta": "208"
  }, {
    "name": "Sainsbury's",
    "longitude": -1.623689,
    "latitude": 53.6890272,
    "address": "Dewsbury, WF12 8, United Kingdom",
    "meta": "209"
  }, {
    "name": "Sainsbury's",
    "longitude": -1.2384749,
    "latitude": 51.6076087,
    "address": "59 Queens Road, Bristol, BS8 1, United Kingdom",
    "meta": "210"
  }, {
    "name": "Sainsbury's",
    "longitude": -2.6065276,
    "latitude": 51.4564196,
    "address": "Didcot, OX11 7, United Kingdom",
    "meta": "211"
  }, {
    "name": "Sainsbury's",
    "longitude": -0.3879637,
    "latitude": 51.6812933,
    "address": "Watford, WD25 9, United Kingdom",
    "meta": "212"
  }, {
    "name": "Sainsbury's",
    "longitude": -1.1374756,
    "latitude": 53.5224294,
    "address": "Doncaster, DN1 1, United Kingdom",
    "meta": "213"
  }, {
    "name": "Sainsbury's",
    "longitude": -2.4505739,
    "latitude": 50.714345,
    "address": "Poundbury Crescent, Dorchester, DT1 2, United Kingdom",
    "meta": "214"
  }, {
    "name": "Sainsbury's",
    "longitude": -0.3320135,
    "latitude": 51.2318574,
    "address": "61 High Street, Dorking, RH4 1AY, United Kingdom",
    "meta": "215"
  }, {
    "name": "Sainsbury's",
    "longitude": -1.0981247,
    "latitude": 54.6077595,
    "address": "Wreakes Lane, Dronfield, S18 1, United Kingdom",
    "meta": "216"
  }, {
    "name": "Sainsbury's",
    "longitude": -1.4772786,
    "latitude": 53.3035567,
    "address": "Ennis Square, Redcar, TS10 5, United Kingdom",
    "meta": "217"
  }, {
    "name": "Sainsbury's",
    "longitude": -4.3774868,
    "latitude": 55.9051501,
    "address": "Allerdyce Drive, Clydebank, G15 6, United Kingdom",
    "meta": "218"
  }, {
    "name": "Sainsbury's",
    "longitude": -0.0810595,
    "latitude": 51.4623005,
    "address": "104 Dog Kennel Hill, London, SE22 8BE, United Kingdom",
    "meta": "219"
  }, {
    "name": "Sainsbury's",
    "longitude": -0.5124057,
    "latitude": 51.8887101,
    "address": "Dunstable, LU5 4, United Kingdom",
    "meta": "220"
  }, {
    "name": "Sainsbury's",
    "longitude": -1.5803036,
    "latitude": 54.8067543,
    "address": "Durham, DH1 5, United Kingdom",
    "meta": "221"
  }, {
    "name": "Sainsbury's",
    "longitude": -1.5591311,
    "latitude": 54.6600706,
    "address": "12 Durham Road, Ferryhill, DL17 0HD, United Kingdom",
    "meta": "222"
  }, {
    "name": "Sainsbury's",
    "longitude": -1.7777801,
    "latitude": 51.1991533,
    "address": "1 High Street, Salisbury, SP4 8BD, United Kingdom",
    "meta": "223"
  }, {
    "name": "Sainsbury's",
    "longitude": -1.9146752,
    "latitude": 53.2563171,
    "address": "47 The Broadway, London, W5 5, United Kingdom",
    "meta": "224"
  }, {
    "name": "Sainsbury's",
    "longitude": -1.3598542,
    "latitude": 54.5200814,
    "address": "12 Eagle Parade, Buxton, SK17 6, United Kingdom",
    "meta": "225"
  }, {
    "name": "Sainsbury's",
    "longitude": -0.3022795,
    "latitude": 51.5139254,
    "address": "9 Durham Lane, Stockton-on-Tees, TS16 0EH, United Kingdom",
    "meta": "226"
  }, {
    "name": "Sainsbury's",
    "longitude": -0.194799,
    "latitude": 51.4936637,
    "address": "172 Earls Court Road, London, SW5 9QQ, United Kingdom",
    "meta": "227"
  }, {
    "name": "Sainsbury's",
    "longitude": -1.4225179,
    "latitude": 54.9459652,
    "address": "1 St John's Terrace, East Boldon, NE36 0LL, United Kingdom",
    "meta": "228"
  }, {
    "name": "Sainsbury's",
    "longitude": -2.5517323,
    "latitude": 51.5079722,
    "address": "Bristol, BS34 8, United Kingdom",
    "meta": "229"
  }, {
    "name": "Sainsbury's",
    "longitude": -0.0178099,
    "latitude": 51.1249138,
    "address": "31 Brooklands Way, East Grinstead, RH19 1DD, United Kingdom",
    "meta": "230"
  }, {
    "name": "Sainsbury's",
    "longitude": 0.0528384,
    "latitude": 51.5343418,
    "address": "2 Myrtle Road, London, E6 1HU, United Kingdom",
    "meta": "231"
  }, {
    "name": "Sainsbury's",
    "longitude": -4.1692485,
    "latitude": 55.7843604,
    "address": "Glasgow, G74 4, United Kingdom",
    "meta": "232"
  }, {
    "name": "Sainsbury's",
    "longitude": 0.5030707,
    "latitude": 51.5918622,
    "address": "Basildon, SS13 1, United Kingdom",
    "meta": "233"
  }, {
    "name": "Sainsbury's",
    "longitude": -2.8979788,
    "latitude": 53.4149993,
    "address": "Liverpool Loop Line Cycle Path 62, Liverpool, L14 1, United Kingdom",
    "meta": "234"
  }, {
    "name": "Sainsbury's",
    "longitude": 0.2851211,
    "latitude": 50.7691241,
    "address": "Arndale Centre, Eastbourne, BN21 3, United Kingdom",
    "meta": "235"
  }, {
    "name": "Sainsbury's",
    "longitude": -1.3524613,
    "latitude": 50.9693005,
    "address": "Tricourt, Scarborough, YO12 4, United Kingdom",
    "meta": "236"
  }, {
    "name": "Sainsbury's",
    "longitude": -0.4173118,
    "latitude": 54.2638049,
    "address": "23 Leigh Road, Eastleigh, SO50 9FF, United Kingdom",
    "meta": "237"
  }, {
    "name": "Sainsbury's",
    "longitude": -0.2754177,
    "latitude": 51.6120629,
    "address": "Edgware, HA8 7, United Kingdom",
    "meta": "238"
  }, {
    "name": "Sainsbury's",
    "longitude": -3.2064624,
    "latitude": 55.9458019,
    "address": "24 Morrison Street, Edinburgh, EH3 8BH, United Kingdom",
    "meta": "239"
  }, {
    "name": "Sainsbury's",
    "longitude": -2.8790916,
    "latitude": 53.2631982,
    "address": "Ellesmere Port, CH65 9, United Kingdom",
    "meta": "240"
  }, {
    "name": "Sainsbury's",
    "longitude": 0.0559452,
    "latitude": 51.4502271,
    "address": "Carpenters Arms Path, London, SE9 1, United Kingdom",
    "meta": "241"
  }, {
    "name": "Sainsbury's",
    "longitude": -2.4745207,
    "latitude": 51.4927916,
    "address": "Bristol, BS16 7, United Kingdom",
    "meta": "242"
  }, {
    "name": "Sainsbury's",
    "longitude": -0.052807,
    "latitude": 51.6528214,
    "address": "Crown Road, Enfield, EN1 1, United Kingdom",
    "meta": "243"
  }, {
    "name": "Sainsbury's",
    "longitude": -0.0900753,
    "latitude": 51.5440156,
    "address": "Essex Road, London, N1 2, United Kingdom",
    "meta": "244"
  }, {
    "name": "Sainsbury's",
    "longitude": -1.1481812,
    "latitude": 54.5549229,
    "address": "71 Bankfields Road, Middlesbrough, TS6 0, United Kingdom",
    "meta": "245"
  }, {
    "name": "Sainsbury's",
    "longitude": -0.1392813,
    "latitude": 51.5252052,
    "address": "Exeter, EX2 8, United Kingdom",
    "meta": "246"
  }, {
    "name": "Sainsbury's",
    "longitude": -3.5360522,
    "latitude": 50.706606,
    "address": "286 Euston Road, London, NW1 3, United Kingdom",
    "meta": "247"
  }, {
    "name": "Sainsbury's",
    "longitude": -3.5324667,
    "latitude": 50.7232532,
    "address": "Exeter, EX4 3, United Kingdom",
    "meta": "248"
  }, {
    "name": "Sainsbury's",
    "longitude": -3.5255276,
    "latitude": 50.726207,
    "address": "167 Sidwell Street, Exeter, EX4 6NN, United Kingdom",
    "meta": "249"
  }, {
    "name": "Sainsbury's",
    "longitude": -0.4841371,
    "latitude": 52.1468759,
    "address": "Clapham Road, Bedford, MK41 7, United Kingdom",
    "meta": "250"
  }, {
    "name": "Sainsbury's",
    "longitude": -2.2191701,
    "latitude": 53.4409678,
    "address": "347 Wilmslow Road, Manchester, M14 6SS, United Kingdom",
    "meta": "251"
  }, {
    "name": "Sainsbury's",
    "longitude": -1.0391391,
    "latitude": 50.8406336,
    "address": "Portsmouth, PO6 1, United Kingdom",
    "meta": "252"
  }, {
    "name": "Sainsbury's",
    "longitude": -1.4856067,
    "latitude": 52.9152291,
    "address": "69 Farm Street, Derby, DE22 3UJ, United Kingdom",
    "meta": "253"
  }, {
    "name": "Sainsbury's",
    "longitude": -0.7536993,
    "latitude": 51.2918366,
    "address": "28 Kingsmead, Farnborough, GU14 7JT, United Kingdom",
    "meta": "254"
  }, {
    "name": "Sainsbury's",
    "longitude": -0.7972279,
    "latitude": 51.2153723,
    "address": "1 South Street, Farnham, GU9 7NH, United Kingdom",
    "meta": "255"
  }, {
    "name": "Sainsbury's",
    "longitude": -0.6156395,
    "latitude": 51.5555039,
    "address": "Beaconsfield Road, Slough, SL2 3, United Kingdom",
    "meta": "256"
  }, {
    "name": "Sainsbury's",
    "longitude": -1.6166075,
    "latitude": 53.7918279,
    "address": "Ring Road Farnley, Leeds, LS12 5, United Kingdom",
    "meta": "257"
  }, {
    "name": "Sainsbury's",
    "longitude": -0.1055333,
    "latitude": 51.5193156,
    "address": "23 Farringdon Road, London, EC1N 8, United Kingdom",
    "meta": "258"
  }, {
    "name": "Sainsbury's",
    "longitude": -0.0795201,
    "latitude": 51.5123805,
    "address": "13 Fenchurch Buildings, London, EC3M 5JR, United Kingdom",
    "meta": "259"
  }, {
    "name": "Sainsbury's",
    "longitude": -1.8749541,
    "latitude": 50.8112084,
    "address": "Ringwood Road, Ferndown, BH22 9, United Kingdom",
    "meta": "260"
  }, {
    "name": "Sainsbury's",
    "longitude": -1.5436898,
    "latitude": 54.6886737,
    "address": "Ferryhill, DL17 8, United Kingdom",
    "meta": "261"
  }, {
    "name": "Sainsbury's",
    "longitude": -0.1090262,
    "latitude": 51.5175431,
    "address": "78 Fetter Lane, London, EC4A 1EQ, United Kingdom",
    "meta": "262"
  }, {
    "name": "Sainsbury's",
    "longitude": -0.1814262,
    "latitude": 51.5478824,
    "address": "London, NW3 6, United Kingdom",
    "meta": "263"
  }, {
    "name": "Sainsbury's",
    "longitude": -0.8417438,
    "latitude": 51.2814957,
    "address": "The Hart Shopping Centre, Fleet, GU51 4, United Kingdom",
    "meta": "264"
  }, {
    "name": "Sainsbury's",
    "longitude": -3.1389929,
    "latitude": 53.2507288,
    "address": "Flint, CH6 5, United Kingdom",
    "meta": "265"
  }, {
    "name": "Sainsbury's",
    "longitude": 1.1748684,
    "latitude": 51.0784804,
    "address": "5 Bouverie Road West, Folkestone, CT20 2SB, United Kingdom",
    "meta": "266"
  }, {
    "name": "Sainsbury's",
    "longitude": -1.5652443,
    "latitude": 55.0214673,
    "address": "Springfield Park, Newcastle upon Tyne, NE12 9, United Kingdom",
    "meta": "267"
  }, {
    "name": "Sainsbury's",
    "longitude": -0.055505,
    "latitude": 51.4397218,
    "address": "36 London Road, London, SE23 3, United Kingdom",
    "meta": "268"
  }, {
    "name": "Sainsbury's",
    "longitude": -5.9095476,
    "latitude": 54.5638785,
    "address": "Belfast, BT7 3, United Kingdom",
    "meta": "269"
  }, {
    "name": "Sainsbury's",
    "longitude": -0.138913,
    "latitude": 51.5561745,
    "address": "Fortess Road, London, NW5 2, United Kingdom",
    "meta": "270"
  }, {
    "name": "Sainsbury's",
    "longitude": -1.0739125,
    "latitude": 53.9629261,
    "address": "Foss Bank, York, YO31 7, United Kingdom",
    "meta": "271"
  }, {
    "name": "Sainsbury's",
    "longitude": -1.1837459,
    "latitude": 52.5988288,
    "address": "Leicester, LE19 1, United Kingdom",
    "meta": "272"
  }, {
    "name": "Sainsbury's",
    "longitude": -1.5902697,
    "latitude": 54.7945076,
    "address": "93 Cumberland Road, Camberley, GU15 1AX, United Kingdom",
    "meta": "273"
  }, {
    "name": "Sainsbury's",
    "longitude": -0.7023774,
    "latitude": 51.3296244,
    "address": "11 Front Street, Durham, DH1 5, United Kingdom",
    "meta": "274"
  }, {
    "name": "Sainsbury's",
    "longitude": -2.3322681,
    "latitude": 51.2172138,
    "address": "Wessex Fields, Frome, BA11 4, United Kingdom",
    "meta": "275"
  }, {
    "name": "Sainsbury's",
    "longitude": -1.0738497,
    "latitude": 53.9464217,
    "address": "208 Fulford Road, York, YO10 4, United Kingdom",
    "meta": "276"
  }, {
    "name": "Sainsbury's",
    "longitude": -0.1850729,
    "latitude": 51.4677091,
    "address": "River Walk, London, SW6 2, United Kingdom",
    "meta": "277"
  }, {
    "name": "Sainsbury's",
    "longitude": -0.1944115,
    "latitude": 51.4805179,
    "address": "460 Fulham Road, London, SW6 2DH, United Kingdom",
    "meta": "278"
  }, {
    "name": "Sainsbury's",
    "longitude": -1.3836499,
    "latitude": 54.9294532,
    "address": "5 Station Road, Sunderland, SR6 9AE, United Kingdom",
    "meta": "279"
  }, {
    "name": "Sainsbury's",
    "longitude": -1.617828,
    "latitude": 54.9741333,
    "address": "17 Gallowgate, Newcastle upon Tyne, NE1 4SP, United Kingdom",
    "meta": "280"
  }, {
    "name": "Sainsbury's",
    "longitude": -1.3883653,
    "latitude": 53.7929392,
    "address": "2 Main Street, Leeds, LS25 1DS, United Kingdom",
    "meta": "281"
  }, {
    "name": "Sainsbury's",
    "longitude": -1.1320702,
    "latitude": 53.3205095,
    "address": "341 Gateford Road, Worksop, S81 7, United Kingdom",
    "meta": "282"
  }, {
    "name": "Sainsbury's",
    "longitude": -1.0833614,
    "latitude": 52.9784538,
    "address": "34 Arnold Lane, Nottingham, NG4 4HB, United Kingdom",
    "meta": "283"
  }, {
    "name": "Sainsbury's",
    "longitude": -1.5550484,
    "latitude": 54.7792111,
    "address": "43 Sunderland Road, Durham, DH1 2LH, United Kingdom",
    "meta": "284"
  }, {
    "name": "Sainsbury's",
    "longitude": -1.4256282,
    "latitude": 53.3452157,
    "address": "Gleadless Road, Sheffield, S12 2, United Kingdom",
    "meta": "285"
  }, {
    "name": "Sainsbury's",
    "longitude": -1.3239278,
    "latitude": 54.5897137,
    "address": "5 Hanover Parade, Stockton-on-Tees, TS20 1RF, United Kingdom",
    "meta": "286"
  }, {
    "name": "Sainsbury's",
    "longitude": -1.0689527,
    "latitude": 52.5937326,
    "address": "7 Glen Road, Leicester, LE2 4PE, United Kingdom",
    "meta": "287"
  }, {
    "name": "Sainsbury's",
    "longitude": -2.2434351,
    "latitude": 51.8666888,
    "address": "84 Northgate Street, Gloucester, GL1 2AG, United Kingdom",
    "meta": "288"
  }, {
    "name": "Sainsbury's",
    "longitude": -1.1347711,
    "latitude": 52.5871394,
    "address": "46 Gloucester Crescent, Wigston, LE18 4XJ, United Kingdom",
    "meta": "289"
  }, {
    "name": "Sainsbury's",
    "longitude": -0.6050703,
    "latitude": 51.1857426,
    "address": "Woolsack Way, Godalming, GU7 1, United Kingdom",
    "meta": "290"
  }, {
    "name": "Sainsbury's",
    "longitude": -0.1950758,
    "latitude": 51.5698014,
    "address": "594 Finchley Road, London, NW11 7RX, United Kingdom",
    "meta": "291"
  }, {
    "name": "Sainsbury's",
    "longitude": -0.8784823,
    "latitude": 53.705649,
    "address": "142 Boothferry Road, Goole, DN14 6AZ, United Kingdom",
    "meta": "292"
  }, {
    "name": "Sainsbury's",
    "longitude": -4.0427805,
    "latitude": 51.6695584,
    "address": "12 Alexandra Road, Swansea, SA4 4NW, United Kingdom",
    "meta": "293"
  }, {
    "name": "Sainsbury's",
    "longitude": -1.6194175,
    "latitude": 55.0053765,
    "address": "High Street, Newcastle upon Tyne, NE3 1, United Kingdom",
    "meta": "294"
  }, {
    "name": "Sainsbury's",
    "longitude": -0.6384464,
    "latitude": 52.9081415,
    "address": "59 London Road, Grantham, NG31 6, United Kingdom",
    "meta": "295"
  }, {
    "name": "Sainsbury's",
    "longitude": -1.7627367,
    "latitude": 53.7906048,
    "address": "13 Claremont, Bradford, BD7 1BQ, United Kingdom",
    "meta": "296"
  }, {
    "name": "Sainsbury's",
    "longitude": -0.1435003,
    "latitude": 51.5218413,
    "address": "202 Great Portland Street, London, W1W 5PH, United Kingdom",
    "meta": "297"
  }, {
    "name": "Sainsbury's",
    "longitude": 1.7302838,
    "latitude": 52.6097777,
    "address": "72 St Nicholas Road, Great Yarmouth, NR30 1NP, United Kingdom",
    "meta": "298"
  }, {
    "name": "Sainsbury's",
    "longitude": -1.0580379,
    "latitude": 54.6002719,
    "address": "2 Embleton Court, Redcar, TS10 2, United Kingdom",
    "meta": "299"
  }, {
    "name": "Sainsbury's",
    "longitude": 0.0150358,
    "latitude": 51.4895739,
    "address": "Commercial Way, London, SE10 0, United Kingdom",
    "meta": "300"
  }, {
    "name": "Sainsbury's",
    "longitude": -0.3770857,
    "latitude": 53.7822758,
    "address": "249 Greenwood Avenue, Hull, HU6 9, United Kingdom",
    "meta": "301"
  }, {
    "name": "Sainsbury's",
    "longitude": -0.0858821,
    "latitude": 53.5709035,
    "address": "Grimsby, DN31 1, United Kingdom",
    "meta": "302"
  }, {
    "name": "Sainsbury's",
    "longitude": -0.4146536,
    "latitude": 53.8434865,
    "address": "186 Grovehill Road, Beverley, HU17 0ES, United Kingdom",
    "meta": "303"
  }, {
    "name": "Sainsbury's",
    "longitude": -0.5715638,
    "latitude": 51.2359774,
    "address": "143 High Street, Guildford, GU1 3, United Kingdom",
    "meta": "304"
  }, {
    "name": "Sainsbury's",
    "longitude": -1.0580263,
    "latitude": 54.5302661,
    "address": "Morgan Drive, Guisborough, TS14 7, United Kingdom",
    "meta": "305"
  }, {
    "name": "Sainsbury's",
    "longitude": 1.1315828,
    "latitude": 52.0583215,
    "address": "40 Hadleigh Road, Ipswich, IP2 0, United Kingdom",
    "meta": "306"
  }, {
    "name": "Sainsbury's",
    "longitude": -1.8557044,
    "latitude": 53.7253162,
    "address": "Wade Street, Halifax, HX1 1, United Kingdom",
    "meta": "307"
  }, {
    "name": "Sainsbury's",
    "longitude": -0.3847163,
    "latitude": 53.7760153,
    "address": "555 Inglemire Lane, Hull, HU6 8NA, United Kingdom",
    "meta": "308"
  }, {
    "name": "Sainsbury's",
    "longitude": -2.4613671,
    "latitude": 54.9695791,
    "address": "Haltwhistle, NE49 9, United Kingdom",
    "meta": "309"
  }, {
    "name": "Sainsbury's",
    "longitude": -4.0540837,
    "latitude": 55.7800419,
    "address": "Douglas Park Lane, Hamilton, ML3 0, United Kingdom",
    "meta": "310"
  }, {
    "name": "Sainsbury's",
    "longitude": -0.2199906,
    "latitude": 51.4845863,
    "address": "206 Fulham Palace Road, London, W6 8QZ, United Kingdom",
    "meta": "311"
  }, {
    "name": "Sainsbury's",
    "longitude": 0.2800765,
    "latitude": 50.7920135,
    "address": "Cross Levels Way, Eastbourne, BN22 9, United Kingdom",
    "meta": "312"
  }, {
    "name": "Sainsbury's",
    "longitude": -0.37853,
    "latitude": 51.4263633,
    "address": "13 Tangley Park Road, Hampton, TW12 3YH, United Kingdom",
    "meta": "313"
  }, {
    "name": "Sainsbury's",
    "longitude": -3.0643476,
    "latitude": 51.0209355,
    "address": "Hankridge Way, Taunton, TA1 2, United Kingdom",
    "meta": "314"
  }, {
    "name": "Sainsbury's",
    "longitude": -2.1826892,
    "latitude": 53.0253647,
    "address": "51 Etruria Road, Stoke-on-Trent, ST1 5SA, United Kingdom",
    "meta": "315"
  }, {
    "name": "Sainsbury's",
    "longitude": -1.945398,
    "latitude": 52.4603999,
    "address": "71 High Street, Birmingham, B17 9NS, United Kingdom",
    "meta": "316"
  }, {
    "name": "Sainsbury's",
    "longitude": -1.5097461,
    "latitude": 53.8095174,
    "address": "318 Harehills Lane, Leeds, LS9 6AX, United Kingdom",
    "meta": "317"
  }, {
    "name": "Sainsbury's",
    "longitude": 0.0928253,
    "latitude": 51.7741252,
    "address": "Hammarskjold Road, Harlow, CM20 1, United Kingdom",
    "meta": "318"
  }, {
    "name": "Sainsbury's",
    "longitude": 0.2189569,
    "latitude": 51.6063629,
    "address": "51 Farnham Road, Romford, RM3 8EJ, United Kingdom",
    "meta": "319"
  }, {
    "name": "Sainsbury's",
    "longitude": -0.3560596,
    "latitude": 51.8160684,
    "address": "High Street, Harpenden, AL5 2, United Kingdom",
    "meta": "320"
  }, {
    "name": "Sainsbury's",
    "longitude": -0.0965796,
    "latitude": 51.5767346,
    "address": "Williamson Road, London, N4 1, United Kingdom",
    "meta": "321"
  }, {
    "name": "Sainsbury's",
    "longitude": -1.499769,
    "latitude": 53.9849056,
    "address": "Harrogate, HG2 8, United Kingdom",
    "meta": "322"
  }, {
    "name": "Sainsbury's",
    "longitude": -1.2191002,
    "latitude": 54.6881408,
    "address": "49 Murray Street, Hartlepool, TS26 8, United Kingdom",
    "meta": "323"
  }, {
    "name": "Sainsbury's",
    "longitude": 0.4086708,
    "latitude": 52.0901546,
    "address": "7 Haycocks Road, Haverhill, CB9 7YL, United Kingdom",
    "meta": "324"
  }, {
    "name": "Sainsbury's",
    "longitude": -0.4056044,
    "latitude": 51.5164235,
    "address": "Hayes, UB3 3, United Kingdom",
    "meta": "325"
  }, {
    "name": "Sainsbury's",
    "longitude": -0.1069006,
    "latitude": 51.0059582,
    "address": "Bannister Way, Haywards Heath, RH16 1, United Kingdom",
    "meta": "326"
  }, {
    "name": "Sainsbury's",
    "longitude": -2.1261648,
    "latitude": 53.3835743,
    "address": "16 High Street, Ashford, TN27 9NE, United Kingdom",
    "meta": "327"
  }, {
    "name": "Sainsbury's",
    "longitude": 0.6217806,
    "latitude": 51.1678106,
    "address": "27 London Road, Stockport, SK7 4AW, United Kingdom",
    "meta": "328"
  }, {
    "name": "Sainsbury's",
    "longitude": -1.5782371,
    "latitude": 54.9960264,
    "address": "6 Etherstone Avenue, Newcastle upon Tyne, NE7 7JW, United Kingdom",
    "meta": "329"
  }, {
    "name": "Sainsbury's",
    "longitude": -2.2369149,
    "latitude": 53.5377088,
    "address": "18 Westway, Manchester, M9 0QS, United Kingdom",
    "meta": "330"
  }, {
    "name": "Sainsbury's",
    "longitude": -1.3129318,
    "latitude": 50.9232987,
    "address": "Tollbar Way, Southampton, SO30 2, United Kingdom",
    "meta": "331"
  }, {
    "name": "Sainsbury's",
    "longitude": 0.5727866,
    "latitude": 51.3415665,
    "address": "Hempstead Valley Shopping Centre, Gillingham, ME7 3, United Kingdom",
    "meta": "332"
  }, {
    "name": "Sainsbury's",
    "longitude": -0.2442681,
    "latitude": 51.5836404,
    "address": "Barton Place, Hereford, HR4 0, United Kingdom",
    "meta": "333"
  }, {
    "name": "Sainsbury's",
    "longitude": -2.7244501,
    "latitude": 52.0545799,
    "address": "Hyde Estate Road, London, NW9 6, United Kingdom",
    "meta": "334"
  }, {
    "name": "Sainsbury's",
    "longitude": -0.1012997,
    "latitude": 51.4531937,
    "address": "138 Herne Hill, London, SE24 9, United Kingdom",
    "meta": "335"
  }, {
    "name": "Sainsbury's",
    "longitude": -0.3662822,
    "latitude": 53.7347423,
    "address": "320 Hessle Road, Hull, HU3 3DU, United Kingdom",
    "meta": "336"
  }, {
    "name": "Sainsbury's",
    "longitude": -1.2322353,
    "latitude": 51.7215054,
    "address": "Oxford, OX4 4, United Kingdom",
    "meta": "337"
  }, {
    "name": "Sainsbury's",
    "longitude": -0.7531074,
    "latitude": 51.6351804,
    "address": "Bellfield Road, High Wycombe, HP13 5, United Kingdom",
    "meta": "338"
  }, {
    "name": "Sainsbury's",
    "longitude": -0.1108743,
    "latitude": 51.6454779,
    "address": "Florey Square, London, N21 1, United Kingdom",
    "meta": "339"
  }, {
    "name": "Sainsbury's",
    "longitude": -0.2752566,
    "latitude": 51.9513516,
    "address": "Hitchin, SG5 1, United Kingdom",
    "meta": "340"
  }, {
    "name": "Sainsbury's",
    "longitude": -0.0098205,
    "latitude": 51.7612221,
    "address": "Brewery Road, Hoddesdon, EN11 8, United Kingdom",
    "meta": "341"
  }, {
    "name": "Sainsbury's",
    "longitude": -0.1202247,
    "latitude": 51.5172526,
    "address": "129 Kingsway, London, WC2B 6, United Kingdom",
    "meta": "342"
  }, {
    "name": "Sainsbury's",
    "longitude": -5.8551573,
    "latitude": 54.6278572,
    "address": "Belfast, BT3 9, United Kingdom",
    "meta": "343"
  }, {
    "name": "Sainsbury's",
    "longitude": -1.3133055,
    "latitude": 54.7611041,
    "address": "25 Cotsford Lane, Peterlee, SR8 4, United Kingdom",
    "meta": "344"
  }, {
    "name": "Sainsbury's",
    "longitude": 0.219518,
    "latitude": 51.5624566,
    "address": "112 High Street, Hornchurch, RM11 4UL, United Kingdom",
    "meta": "345"
  }, {
    "name": "Sainsbury's",
    "longitude": -0.3325915,
    "latitude": 51.0630588,
    "address": "Worthing Road, Horsham, RH12 1, United Kingdom",
    "meta": "346"
  }, {
    "name": "Sainsbury's",
    "longitude": -3.176688,
    "latitude": 53.3931668,
    "address": "29 Market Street, Wirral, CH47 2, United Kingdom",
    "meta": "347"
  }, {
    "name": "Sainsbury's",
    "longitude": -1.7842061,
    "latitude": 53.6462782,
    "address": "9 Market Street, Huddersfield, HD1 2, United Kingdom",
    "meta": "348"
  }, {
    "name": "Sainsbury's",
    "longitude": -0.4214047,
    "latitude": 53.72285,
    "address": "Sainsbury Way, Hessle, HU13 9, United Kingdom",
    "meta": "349"
  }, {
    "name": "Sainsbury's",
    "longitude": -0.4085072,
    "latitude": 53.7567891,
    "address": "236 Wold Road, Hull, HU5 5XG, United Kingdom",
    "meta": "350"
  }, {
    "name": "Sainsbury's",
    "longitude": 0.4915271,
    "latitude": 52.9390166,
    "address": "75 Westgate, Hunstanton, PE36 5EP, United Kingdom",
    "meta": "351"
  }, {
    "name": "Sainsbury's",
    "longitude": -1.0551291,
    "latitude": 54.5262113,
    "address": "13 Carlow Close, Guisborough, TS14 7LL, United Kingdom",
    "meta": "352"
  }, {
    "name": "Sainsbury's",
    "longitude": -0.1820369,
    "latitude": 52.3312192,
    "address": "Chequers Way, Huntingdon, PE29 3, United Kingdom",
    "meta": "353"
  }, {
    "name": "Sainsbury's",
    "longitude": -1.5696308,
    "latitude": 53.8122151,
    "address": "78 Brudenell Road, Leeds, LS6 1, United Kingdom",
    "meta": "354"
  }, {
    "name": "Sainsbury's",
    "longitude": 0.0678445,
    "latitude": 51.5565553,
    "address": "57 Roden Street, Ilford, IG1 2AA, United Kingdom",
    "meta": "355"
  }, {
    "name": "Sainsbury's",
    "longitude": -0.2216332,
    "latitude": 53.6127414,
    "address": "392 Pelham Road, Immingham, DN40 1NG, United Kingdom",
    "meta": "356"
  }, {
    "name": "Sainsbury's",
    "longitude": -0.3036921,
    "latitude": 53.7754771,
    "address": "384 Ings Road, Hull, HU8 0NP, United Kingdom",
    "meta": "357"
  }, {
    "name": "Sainsbury's",
    "longitude": -1.1050035,
    "latitude": 53.5270551,
    "address": "106 Sandringham Road, Doncaster, DN2 5, United Kingdom",
    "meta": "358"
  }, {
    "name": "Sainsbury's",
    "longitude": -4.8641463,
    "latitude": 55.9106433,
    "address": "Main Street, Greenock, PA16 0, United Kingdom",
    "meta": "359"
  }, {
    "name": "Sainsbury's",
    "longitude": 1.1562292,
    "latitude": 52.0559901,
    "address": "Lower Brook Street, Ipswich, IP4 1, United Kingdom",
    "meta": "360"
  }, {
    "name": "Sainsbury's",
    "longitude": -1.2997597,
    "latitude": 50.7012445,
    "address": "Foxes Road, Newport, PO30 5, United Kingdom",
    "meta": "361"
  }, {
    "name": "Sainsbury's",
    "longitude": -0.1068288,
    "latitude": 51.5337844,
    "address": "18 Liverpool Road, London, N1 0, United Kingdom",
    "meta": "362"
  }, {
    "name": "Sainsbury's",
    "longitude": -1.4899762,
    "latitude": 52.9318787,
    "address": "119 Kedleston Road, Derby, DE22 1, United Kingdom",
    "meta": "363"
  }, {
    "name": "Sainsbury's",
    "longitude": -1.9048384,
    "latitude": 53.8690317,
    "address": "Aire Valley Business Centre, Keighley, BD21 3, United Kingdom",
    "meta": "364"
  }, {
    "name": "Sainsbury's",
    "longitude": -1.1405875,
    "latitude": 51.2351534,
    "address": "Wallop Drive, Basingstoke, RG22 4, United Kingdom",
    "meta": "365"
  }, {
    "name": "Sainsbury's",
    "longitude": -0.4952705,
    "latitude": 52.1172723,
    "address": "Bedford, MK42 8, United Kingdom",
    "meta": "366"
  }, {
    "name": "Sainsbury's",
    "longitude": -1.5767714,
    "latitude": 52.3403478,
    "address": "Harrow, HA3 0, United Kingdom",
    "meta": "367"
  }, {
    "name": "Sainsbury's",
    "longitude": -0.3147521,
    "latitude": 51.582032,
    "address": "72 Warwick Road, Kenilworth, CV8 1, United Kingdom",
    "meta": "368"
  }, {
    "name": "Sainsbury's",
    "longitude": -0.7264338,
    "latitude": 52.4028354,
    "address": "24 Rockingham Road, Kettering, NN16 8JY, United Kingdom",
    "meta": "369"
  }, {
    "name": "Sainsbury's",
    "longitude": -1.0893507,
    "latitude": 52.8755538,
    "address": "110 Nottingham Road, Nottingham, NG12 5GT, United Kingdom",
    "meta": "370"
  }, {
    "name": "Sainsbury's",
    "longitude": -2.2541389,
    "latitude": 52.391637,
    "address": "Kidderminster, DY11 6, United Kingdom",
    "meta": "371"
  }, {
    "name": "Sainsbury's",
    "longitude": -1.2783777,
    "latitude": 51.8086531,
    "address": "Oxford Road, Kidlington, OX5 1, United Kingdom",
    "meta": "372"
  }, {
    "name": "Sainsbury's",
    "longitude": -0.1940269,
    "latitude": 51.5384571,
    "address": "103 Kilburn High Road, London, NW6 4HS, United Kingdom",
    "meta": "373"
  }, {
    "name": "Sainsbury's",
    "longitude": -0.2028668,
    "latitude": 51.5461525,
    "address": "391 Kilburn High Road, London, NW6 7QE, United Kingdom",
    "meta": "374"
  }, {
    "name": "Sainsbury's",
    "longitude": -0.257988,
    "latitude": 51.3413454,
    "address": "Epsom, KT17 1, United Kingdom",
    "meta": "375"
  }, {
    "name": "Sainsbury's",
    "longitude": -1.2563201,
    "latitude": 52.9973025,
    "address": "25 Main Street, Nottingham, NG16 2NG, United Kingdom",
    "meta": "376"
  }, {
    "name": "Sainsbury's",
    "longitude": -1.8928649,
    "latitude": 52.430655,
    "address": "75 Alcester Road South, Birmingham, B14 7PT, United Kingdom",
    "meta": "377"
  }, {
    "name": "Sainsbury's",
    "longitude": -0.2274962,
    "latitude": 51.4930576,
    "address": "55 King Street, London, W6 0JU, United Kingdom",
    "meta": "378"
  }, {
    "name": "Sainsbury's",
    "longitude": -1.5371453,
    "latitude": 54.0034844,
    "address": "Eden Walk, Kingston upon Thames, KT1 1, United Kingdom",
    "meta": "379"
  }, {
    "name": "Sainsbury's",
    "longitude": -0.3032358,
    "latitude": 51.4096636,
    "address": "6 Dawson Terrace, Harrogate, HG1 5, United Kingdom",
    "meta": "380"
  }, {
    "name": "Sainsbury's",
    "longitude": -1.5096091,
    "latitude": 52.9210143,
    "address": "Derby, DE22 3, United Kingdom",
    "meta": "381"
  }, {
    "name": "Sainsbury's",
    "longitude": -2.5087271,
    "latitude": 51.4630069,
    "address": "Bristol, BS15 8, United Kingdom",
    "meta": "382"
  }, {
    "name": "Sainsbury's",
    "longitude": -1.374594,
    "latitude": 53.775393,
    "address": "115 Moorgate Road, Leeds, LS25 7ET, United Kingdom",
    "meta": "383"
  }, {
    "name": "Sainsbury's",
    "longitude": -4.1539877,
    "latitude": 55.9364534,
    "address": "6 Shamrock Street, Glasgow, G66 1, United Kingdom",
    "meta": "384"
  }, {
    "name": "Sainsbury's",
    "longitude": -1.4663928,
    "latitude": 54.0080719,
    "address": "25 High Street, Knaresborough, HG5 0ET, United Kingdom",
    "meta": "385"
  }, {
    "name": "Sainsbury's",
    "longitude": -0.2147902,
    "latitude": 51.5255762,
    "address": "336 Ladbroke Grove, London, W10 5, United Kingdom",
    "meta": "386"
  }, {
    "name": "Sainsbury's",
    "longitude": -2.7994089,
    "latitude": 54.0511278,
    "address": "34 Cable Street, Lancaster, LA1 1HH, United Kingdom",
    "meta": "387"
  }, {
    "name": "Sainsbury's",
    "longitude": 0.4703472,
    "latitude": 51.2897851,
    "address": "Upper Mills Road, Aylesford, ME20 7, United Kingdom",
    "meta": "388"
  }, {
    "name": "Sainsbury's",
    "longitude": -1.5459849,
    "latitude": 52.2108871,
    "address": "Warwick, CV35 9, United Kingdom",
    "meta": "389"
  }, {
    "name": "Sainsbury's",
    "longitude": -0.3276172,
    "latitude": 51.2957224,
    "address": "High Street, Leatherhead, KT22 8, United Kingdom",
    "meta": "390"
  }, {
    "name": "Sainsbury's",
    "longitude": 0.0115253,
    "latitude": 51.4562603,
    "address": "6 Burnt Ash Road, London, SE12 8PZ, United Kingdom",
    "meta": "391"
  }, {
    "name": "Sainsbury's",
    "longitude": -1.4351899,
    "latitude": 53.7947108,
    "address": "Selby Road, Leeds, LS15 8, United Kingdom",
    "meta": "392"
  }, {
    "name": "Sainsbury's",
    "longitude": -1.5452144,
    "latitude": 53.7995274,
    "address": "44 The Headrow, Leeds, LS2 8, United Kingdom",
    "meta": "393"
  }, {
    "name": "Sainsbury's",
    "longitude": -1.5562454,
    "latitude": 53.8307398,
    "address": "95 Stainbeck Road, Leeds, LS7 2PR, United Kingdom",
    "meta": "394"
  }, {
    "name": "Sainsbury's",
    "longitude": -1.5823871,
    "latitude": 53.8210533,
    "address": "14 Ash Road, Leeds, LS6 3JF, United Kingdom",
    "meta": "395"
  }, {
    "name": "Sainsbury's",
    "longitude": -1.1290202,
    "latitude": 52.636599,
    "address": "Leicester, LE1 3, United Kingdom",
    "meta": "396"
  }, {
    "name": "Sainsbury's",
    "longitude": -1.0689184,
    "latitude": 52.6592432,
    "address": "1 Lakeview Chase, Leicester, LE5 1QN, United Kingdom",
    "meta": "397"
  }, {
    "name": "Sainsbury's",
    "longitude": -1.21666,
    "latitude": 52.6245706,
    "address": "Parsonage Retail Park, Leigh, WN7 5, United Kingdom",
    "meta": "398"
  }, {
    "name": "Sainsbury's",
    "longitude": -2.5273494,
    "latitude": 53.4989298,
    "address": "25 Lenton Boulevard, Nottingham, NG7 2, United Kingdom",
    "meta": "399"
  }, {
    "name": "Sainsbury's",
    "longitude": -1.1742744,
    "latitude": 52.9480871,
    "address": "152 Hinckley Road, Leicester, LE3 3JT, United Kingdom",
    "meta": "400"
  }, {
    "name": "Sainsbury's",
    "longitude": -0.2050667,
    "latitude": 51.9818124,
    "address": "Third Avenue, Letchworth, SG6 2, United Kingdom",
    "meta": "401"
  }, {
    "name": "Sainsbury's",
    "longitude": -0.12433,
    "latitude": 50.8375781,
    "address": "112 Lewes Road, Brighton, BN2 3, United Kingdom",
    "meta": "402"
  }, {
    "name": "Sainsbury's",
    "longitude": -0.0117039,
    "latitude": 51.4616585,
    "address": "89 Lewisham High Street, London, SE13 6EE, United Kingdom",
    "meta": "403"
  }, {
    "name": "Sainsbury's",
    "longitude": -0.5807569,
    "latitude": 53.2048464,
    "address": "Lincoln, LN6 7, United Kingdom",
    "meta": "404"
  }, {
    "name": "Sainsbury's",
    "longitude": -3.6246488,
    "latitude": 55.9762533,
    "address": "6 Main Street, Linlithgow, EH49 7PE, United Kingdom",
    "meta": "405"
  }, {
    "name": "Sainsbury's",
    "longitude": -1.2383846,
    "latitude": 54.5713322,
    "address": "Southfield Lane, Middlesbrough, TS1 3, United Kingdom",
    "meta": "406"
  }, {
    "name": "Sainsbury's",
    "longitude": -0.8016,
    "latitude": 51.0752922,
    "address": "Midhurst Road, Liphook, GU30 7, United Kingdom",
    "meta": "407"
  }, {
    "name": "Sainsbury's",
    "longitude": -2.0970203,
    "latitude": 53.6445031,
    "address": "18 Hare Hill Road, Littleborough, OL15 9BA, United Kingdom",
    "meta": "408"
  }, {
    "name": "Sainsbury's",
    "longitude": -0.1007807,
    "latitude": 53.5619621,
    "address": "121 Littlefield Lane, Grimsby, DN34 4PN, United Kingdom",
    "meta": "409"
  }, {
    "name": "Sainsbury's",
    "longitude": -0.5436077,
    "latitude": 50.8095639,
    "address": "Surrey Street, Littlehampton, BN17 5, United Kingdom",
    "meta": "410"
  }, {
    "name": "Sainsbury's",
    "longitude": -2.9799282,
    "latitude": 53.404773,
    "address": "Central Shopping Centre, Liverpool, L1 1, United Kingdom",
    "meta": "411"
  }, {
    "name": "Sainsbury's",
    "longitude": 0.0556382,
    "latitude": 51.3667887,
    "address": "Pallant Way, Orpington, BR6 8, United Kingdom",
    "meta": "412"
  }, {
    "name": "Sainsbury's",
    "longitude": -0.0874807,
    "latitude": 51.5127248,
    "address": "Change Alley, London, EC3V 3, United Kingdom",
    "meta": "413"
  }, {
    "name": "Sainsbury's",
    "longitude": -0.2825646,
    "latitude": 51.7166176,
    "address": "St Albans, AL2 1, United Kingdom",
    "meta": "414"
  }, {
    "name": "Sainsbury's",
    "longitude": -1.285656,
    "latitude": 52.9089302,
    "address": "250 College Street, Nottingham, NG10 4GW, United Kingdom",
    "meta": "415"
  }, {
    "name": "Sainsbury's",
    "longitude": 1.1860407,
    "latitude": 52.6526521,
    "address": "William Frost Way, Norwich, NR5 0, United Kingdom",
    "meta": "416"
  }, {
    "name": "Sainsbury's",
    "longitude": -1.449073,
    "latitude": 50.9406333,
    "address": "101 Ashby Road, Loughborough, LE11 3AB, United Kingdom",
    "meta": "417"
  }, {
    "name": "Sainsbury's",
    "longitude": -1.2173816,
    "latitude": 52.7722568,
    "address": "Southampton, SO16 8, United Kingdom",
    "meta": "418"
  }, {
    "name": "Sainsbury's",
    "longitude": 0.0530271,
    "latitude": 51.6438032,
    "address": "Old Station Road, Loughton, IG10 4, United Kingdom",
    "meta": "419"
  }, {
    "name": "Sainsbury's",
    "longitude": -0.021276,
    "latitude": 51.6040676,
    "address": "London, E4 8, United Kingdom",
    "meta": "420"
  }, {
    "name": "Sainsbury's",
    "longitude": -0.2200019,
    "latitude": 51.4674207,
    "address": "London, SW15 1, United Kingdom",
    "meta": "421"
  }, {
    "name": "Sainsbury's",
    "longitude": -1.5311169,
    "latitude": 53.6782782,
    "address": "275 Dewsbury Road, Wakefield, WF2 9DD, United Kingdom",
    "meta": "422"
  }, {
    "name": "Sainsbury's",
    "longitude": -0.4227183,
    "latitude": 51.8805243,
    "address": "Lyons Way, Worthing, BN14 9, United Kingdom",
    "meta": "423"
  }, {
    "name": "Sainsbury's",
    "longitude": -0.364783,
    "latitude": 50.8359868,
    "address": "20 Dunstable Road, Luton, LU1 1DY, United Kingdom",
    "meta": "424"
  }, {
    "name": "Sainsbury's",
    "longitude": -3.0303442,
    "latitude": 53.7535949,
    "address": "St Andrew's Road North, Lytham St Annes, FY8 2, United Kingdom",
    "meta": "425"
  }, {
    "name": "Sainsbury's",
    "longitude": -2.1327571,
    "latitude": 53.2624986,
    "address": "58 Whalley Hayes, Macclesfield, SK10 1, United Kingdom",
    "meta": "426"
  }, {
    "name": "Sainsbury's",
    "longitude": -0.7192857,
    "latitude": 51.5234198,
    "address": "4 Providence Place, Maidenhead, SL6 8AG, United Kingdom",
    "meta": "427"
  }, {
    "name": "Sainsbury's",
    "longitude": -0.7433553,
    "latitude": 51.5161022,
    "address": "53 Wootton Way, Maidenhead, SL6 4QZ, United Kingdom",
    "meta": "428"
  }, {
    "name": "Sainsbury's",
    "longitude": 0.5272549,
    "latitude": 51.2717043,
    "address": "44 Newbiggin, Malton, YO17 7JE, United Kingdom",
    "meta": "429"
  }, {
    "name": "Sainsbury's",
    "longitude": -0.7998087,
    "latitude": 54.1375869,
    "address": "Maidstone, ME15 6, United Kingdom",
    "meta": "430"
  }, {
    "name": "Sainsbury's",
    "longitude": -1.1974788,
    "latitude": 53.1379279,
    "address": "Portland Street, Mansfield, NG18 1, United Kingdom",
    "meta": "431"
  }, {
    "name": "Sainsbury's",
    "longitude": -1.1344821,
    "latitude": 52.9760191,
    "address": "232 Ransom Road, Nottingham, NG3 5HJ, United Kingdom",
    "meta": "432"
  }, {
    "name": "Sainsbury's",
    "longitude": -0.1601077,
    "latitude": 51.5137882,
    "address": "48 Bryanston Street, London, W1H 7AA, United Kingdom",
    "meta": "433"
  }, {
    "name": "Sainsbury's",
    "longitude": 0.0895785,
    "latitude": 52.550414,
    "address": "Mill View, March, PE15 8, United Kingdom",
    "meta": "434"
  }, {
    "name": "Sainsbury's",
    "longitude": -0.2733161,
    "latitude": 53.7577043,
    "address": "308 Marfleet Lane, Hull, HU9 5, United Kingdom",
    "meta": "435"
  }, {
    "name": "Sainsbury's",
    "longitude": -0.91881,
    "latitude": 52.4773944,
    "address": "St Marys Place, Market Harborough, LE16 7, United Kingdom",
    "meta": "436"
  }, {
    "name": "Sainsbury's",
    "longitude": -0.7759523,
    "latitude": 51.5711515,
    "address": "33 High Street, Marlow, SL7 1AU, United Kingdom",
    "meta": "437"
  }, {
    "name": "Sainsbury's",
    "longitude": -4.086921,
    "latitude": 50.3890634,
    "address": "Plymouth, PL3 6, United Kingdom",
    "meta": "438"
  }, {
    "name": "Sainsbury's",
    "longitude": -1.8217527,
    "latitude": 52.4018704,
    "address": "Stratford Road, Solihull, B90 4, United Kingdom",
    "meta": "439"
  }, {
    "name": "Sainsbury's",
    "longitude": -0.3078386,
    "latitude": 51.7627308,
    "address": "122 Marshalswick Lane, St Albans, AL1 4UZ, United Kingdom",
    "meta": "440"
  }, {
    "name": "Sainsbury's",
    "longitude": -1.0197271,
    "latitude": 54.5932519,
    "address": "160 High Street, Redcar, TS11 7NB, United Kingdom",
    "meta": "441"
  }, {
    "name": "Sainsbury's",
    "longitude": -1.8963037,
    "latitude": 52.4799952,
    "address": "17 Union Street, Birmingham, B2 4, United Kingdom",
    "meta": "442"
  }, {
    "name": "Sainsbury's",
    "longitude": -1.5604992,
    "latitude": 53.1386615,
    "address": "Cawdor Way, Matlock, DE4 3, United Kingdom",
    "meta": "443"
  }, {
    "name": "Sainsbury's",
    "longitude": -0.1440582,
    "latitude": 51.507886,
    "address": "9 Stratton Street, London, W1J 8LH, United Kingdom",
    "meta": "444"
  }, {
    "name": "Sainsbury's",
    "longitude": -1.8861474,
    "latitude": 52.4040094,
    "address": "1077 Alcester Road South, Birmingham, B14 5, United Kingdom",
    "meta": "445"
  }, {
    "name": "Sainsbury's",
    "longitude": -3.1660859,
    "latitude": 55.9582578,
    "address": "Edinburgh, EH7 5, United Kingdom",
    "meta": "446"
  }, {
    "name": "Sainsbury's",
    "longitude": -2.1387583,
    "latitude": 51.375317,
    "address": "16 Bath Road, Melksham, SN12 6LL, United Kingdom",
    "meta": "447"
  }, {
    "name": "Sainsbury's",
    "longitude": -1.825025,
    "latitude": 52.5877402,
    "address": "45 Mere Green Road, Sutton Coldfield, B75 5BT, United Kingdom",
    "meta": "448"
  }, {
    "name": "Sainsbury's",
    "longitude": -1.5450251,
    "latitude": 53.8012832,
    "address": "32 Woodhouse Lane, Leeds, LS2 8LX, United Kingdom",
    "meta": "449"
  }, {
    "name": "Sainsbury's",
    "longitude": -2.1114399,
    "latitude": 52.4835382,
    "address": "Brierley Hill, DY5 1, United Kingdom",
    "meta": "450"
  }, {
    "name": "Sainsbury's",
    "longitude": -0.1816193,
    "latitude": 51.4152276,
    "address": "London, SW19 1, United Kingdom",
    "meta": "451"
  }, {
    "name": "Sainsbury's",
    "longitude": -1.5440937,
    "latitude": 52.908288,
    "address": "New Orchard Place, Derby, DE3 9, United Kingdom",
    "meta": "452"
  }, {
    "name": "Sainsbury's",
    "longitude": -0.1159959,
    "latitude": 51.518041,
    "address": "282 High Holborn, London, WC1V 7, United Kingdom",
    "meta": "453"
  }, {
    "name": "Sainsbury's",
    "longitude": -1.2488679,
    "latitude": 54.7069841,
    "address": "Hartlepool, TS26 0, United Kingdom",
    "meta": "454"
  }, {
    "name": "Sainsbury's",
    "longitude": -1.2412245,
    "latitude": 54.5765769,
    "address": "Boundary Road, Middlesbrough, TS1 1, United Kingdom",
    "meta": "455"
  }, {
    "name": "Sainsbury's",
    "longitude": -1.5478032,
    "latitude": 53.7468056,
    "address": "16 Middleton Park Avenue, Leeds, LS10 4HP, United Kingdom",
    "meta": "456"
  }, {
    "name": "Sainsbury's",
    "longitude": -2.4825239,
    "latitude": 51.2862675,
    "address": "Radstock, BA3 2, United Kingdom",
    "meta": "457"
  }, {
    "name": "Sainsbury's",
    "longitude": 0.5109815,
    "latitude": 52.3424131,
    "address": "18 St Andrew's Street, Bury St Edmunds, IP28 7HB, United Kingdom",
    "meta": "458"
  }, {
    "name": "Sainsbury's",
    "longitude": -0.7686969,
    "latitude": 52.0362739,
    "address": "Midsummer Boulevard, Milton Keynes, MK9 1, United Kingdom",
    "meta": "459"
  }, {
    "name": "Sainsbury's",
    "longitude": -1.448552,
    "latitude": 53.5696797,
    "address": "22 St Helens Way, Barnsley, S71 2PR, United Kingdom",
    "meta": "460"
  }, {
    "name": "Sainsbury's",
    "longitude": -1.0496754,
    "latitude": 53.9871182,
    "address": "York, YO32 9, United Kingdom",
    "meta": "461"
  }, {
    "name": "Sainsbury's",
    "longitude": -1.5502541,
    "latitude": 53.8450577,
    "address": "Moor Allerton Centre, Leeds, LS17 5, United Kingdom",
    "meta": "462"
  }, {
    "name": "Sainsbury's",
    "longitude": -0.1934852,
    "latitude": 51.402635,
    "address": "39 London Road, Morden, SM4 5HT, United Kingdom",
    "meta": "463"
  }, {
    "name": "Sainsbury's",
    "longitude": -1.502838,
    "latitude": 52.9244759,
    "address": "Brigmor Walk, Derby, DE22 3, United Kingdom",
    "meta": "464"
  }, {
    "name": "Sainsbury's",
    "longitude": -0.1390851,
    "latitude": 51.5351969,
    "address": "12 Mortimer Street, London, W1T 3BL, United Kingdom",
    "meta": "465"
  }, {
    "name": "Sainsbury's",
    "longitude": -0.1385732,
    "latitude": 51.5182754,
    "address": "25 Hampstead Road, London, NW1 7JE, United Kingdom",
    "meta": "466"
  }, {
    "name": "Sainsbury's",
    "longitude": -2.2410605,
    "latitude": 53.4795679,
    "address": "61 Mosley Street, Manchester, M2 3JB, United Kingdom",
    "meta": "467"
  }, {
    "name": "Sainsbury's",
    "longitude": -3.2415521,
    "latitude": 55.9379129,
    "address": "33 Westfield Road, Edinburgh, EH11 2QW, United Kingdom",
    "meta": "468"
  }, {
    "name": "Sainsbury's",
    "longitude": -0.146147,
    "latitude": 51.5899901,
    "address": "17 Fortis Green Road, London, N10 3HP, United Kingdom",
    "meta": "469"
  }, {
    "name": "Sainsbury's",
    "longitude": -1.982681,
    "latitude": 53.7307471,
    "address": "Burnley Road, Hebden Bridge, HX7 5, United Kingdom",
    "meta": "470"
  }, {
    "name": "Sainsbury's",
    "longitude": -2.5145108,
    "latitude": 53.0782291,
    "address": "A51, Nantwich, CW5 6, United Kingdom",
    "meta": "471"
  }, {
    "name": "Sainsbury's",
    "longitude": -2.994183,
    "latitude": 53.4094637,
    "address": "92 Old Hall Street, Liverpool, L3 9, United Kingdom",
    "meta": "472"
  }, {
    "name": "Sainsbury's",
    "longitude": -1.4894969,
    "latitude": 53.3601525,
    "address": "63 Machon Bank Road, Sheffield, S7 1PE, United Kingdom",
    "meta": "473"
  }, {
    "name": "Sainsbury's",
    "longitude": -1.178607,
    "latitude": 54.5546248,
    "address": "Middlesbrough, TS3 0, United Kingdom",
    "meta": "474"
  }, {
    "name": "Sainsbury's",
    "longitude": -0.1708067,
    "latitude": 51.6494689,
    "address": "68 East Barnet Road, Barnet, EN4 8RQ, United Kingdom",
    "meta": "475"
  }, {
    "name": "Sainsbury's",
    "longitude": -0.0423629,
    "latitude": 51.4754658,
    "address": "3 Harts Lane, London, SE14 5UQ, United Kingdom",
    "meta": "476"
  }, {
    "name": "Sainsbury's",
    "longitude": 0.9444542,
    "latitude": 50.9876139,
    "address": "Dymchurch Road, New Romney, TN28 8, United Kingdom",
    "meta": "477"
  }, {
    "name": "Sainsbury's",
    "longitude": -1.3181969,
    "latitude": 51.3989859,
    "address": "Hectors Way, Newbury, RG14 5, United Kingdom",
    "meta": "478"
  }, {
    "name": "Sainsbury's",
    "longitude": 0.0873432,
    "latitude": 51.5807626,
    "address": "King George Avenue, Ilford, IG2 7, United Kingdom",
    "meta": "479"
  }, {
    "name": "Sainsbury's",
    "longitude": -2.2295888,
    "latitude": 53.0130098,
    "address": "Corporation Street, Newcastle, ST5 2, United Kingdom",
    "meta": "480"
  }, {
    "name": "Sainsbury's",
    "longitude": -1.5740796,
    "latitude": 52.7852173,
    "address": "35 High Street, Swadlincote, DE11 0HU, United Kingdom",
    "meta": "481"
  }, {
    "name": "Sainsbury's",
    "longitude": 0.0589497,
    "latitude": 50.7970097,
    "address": "Newhaven, BN9 0, United Kingdom",
    "meta": "482"
  }, {
    "name": "Sainsbury's",
    "longitude": -0.373572,
    "latitude": 53.7438381,
    "address": "121 Newland Avenue, Hull, HU5 2NN, United Kingdom",
    "meta": "483"
  }, {
    "name": "Sainsbury's",
    "longitude": -0.3587158,
    "latitude": 53.7642172,
    "address": "360 Anlaby Road, Hull, HU3 6NS, United Kingdom",
    "meta": "484"
  }, {
    "name": "Sainsbury's",
    "longitude": -2.9950608,
    "latitude": 51.5924985,
    "address": "B4591, Newport, NP20 5, United Kingdom",
    "meta": "485"
  }, {
    "name": "Sainsbury's",
    "longitude": -3.5937499,
    "latitude": 50.5231085,
    "address": "Torquay Road, Newton Abbot, TQ12 4, United Kingdom",
    "meta": "486"
  }, {
    "name": "Sainsbury's",
    "longitude": -0.1276414,
    "latitude": 51.4814304,
    "address": "52 Queen Elizabeth Drive, Normanton, WF6 1JG, United Kingdom",
    "meta": "487"
  }, {
    "name": "Sainsbury's",
    "longitude": -1.4165436,
    "latitude": 53.6893064,
    "address": "Wandsworth Road, London, SW8 2, United Kingdom",
    "meta": "488"
  }, {
    "name": "Sainsbury's",
    "longitude": -0.2264573,
    "latitude": 51.3722951,
    "address": "546 London Road, Sutton, SM3 9AE, United Kingdom",
    "meta": "489"
  }, {
    "name": "Sainsbury's",
    "longitude": -0.1995972,
    "latitude": 51.4817869,
    "address": "350 North End Road, London, SW6 1, United Kingdom",
    "meta": "490"
  }, {
    "name": "Sainsbury's",
    "longitude": -0.1767819,
    "latitude": 51.6178604,
    "address": "857 Great North Road, London, N12 8PT, United Kingdom",
    "meta": "491"
  }, {
    "name": "Sainsbury's",
    "longitude": -1.2120701,
    "latitude": 54.5698792,
    "address": "49 Kings Road, Middlesbrough, TS3 6NH, United Kingdom",
    "meta": "492"
  }, {
    "name": "Sainsbury's",
    "longitude": 1.3918625,
    "latitude": 52.8256392,
    "address": "300 High Street, Northallerton, DL7 8EE, United Kingdom",
    "meta": "493"
  }, {
    "name": "Sainsbury's",
    "longitude": -1.4381038,
    "latitude": 54.3440196,
    "address": "74 Bacton Road, North Walsham, NR28 9DS, United Kingdom",
    "meta": "494"
  }, {
    "name": "Sainsbury's",
    "longitude": -0.8943692,
    "latitude": 52.2389587,
    "address": "38 Newland Walk, Northampton, NN1 2EL, United Kingdom",
    "meta": "495"
  }, {
    "name": "Sainsbury's",
    "longitude": -1.974071,
    "latitude": 52.412225,
    "address": "14 Frankley Beeches Road, Birmingham, B31 5AA, United Kingdom",
    "meta": "496"
  }, {
    "name": "Sainsbury's",
    "longitude": -1.2589824,
    "latitude": 51.7543537,
    "address": "13 Magdalen Street, Oxford, OX1 3, United Kingdom",
    "meta": "497"
  }, {
    "name": "Sainsbury's",
    "longitude": -1.5185175,
    "latitude": 55.0329392,
    "address": "Newcastle upon Tyne, NE27 0, United Kingdom",
    "meta": "498"
  }, {
    "name": "Sainsbury's",
    "longitude": -2.5075405,
    "latitude": 53.2631482,
    "address": "Venables Road, Northwich, CW9 5, United Kingdom",
    "meta": "499"
  }, {
    "name": "Sainsbury's",
    "longitude": -1.3235029,
    "latitude": 54.5857937,
    "address": "96 Darlington Lane, Stockton-on-Tees, TS20 1BW, United Kingdom",
    "meta": "500"
  }, {
    "name": "Sainsbury's",
    "longitude": -1.1924109,
    "latitude": 52.9787918,
    "address": "Nuneaton, CV11 4, United Kingdom",
    "meta": "501"
  }, {
    "name": "Sainsbury's",
    "longitude": -1.4640759,
    "latitude": 52.5199554,
    "address": "444 Nuthall Road, Nottingham, NG8 5DQ, United Kingdom",
    "meta": "502"
  }, {
    "name": "Sainsbury's",
    "longitude": -1.4888839,
    "latitude": 52.9265976,
    "address": "131 Nuns Street, Derby, DE1 3LS, United Kingdom",
    "meta": "503"
  }, {
    "name": "Sainsbury's",
    "longitude": -2.0490125,
    "latitude": 51.901704,
    "address": "Redmarley Road, Cheltenham, GL52 5, United Kingdom",
    "meta": "504"
  }, {
    "name": "Sainsbury's",
    "longitude": -2.0173967,
    "latitude": 52.5045889,
    "address": "Freeth Street, Oldbury, B69 2, United Kingdom",
    "meta": "505"
  }, {
    "name": "Sainsbury's",
    "longitude": -2.1121942,
    "latitude": 53.5403168,
    "address": "62 Union Street, Oldham, OL1 1JZ, United Kingdom",
    "meta": "506"
  }, {
    "name": "Sainsbury's",
    "longitude": -4.1746384,
    "latitude": 55.7599211,
    "address": "Gravel Pit Way, Orpington, BR6 0, United Kingdom",
    "meta": "507"
  }, {
    "name": "Sainsbury's",
    "longitude": 0.1003952,
    "latitude": 51.3753349,
    "address": "Olympia Court, Glasgow, G74 1, United Kingdom",
    "meta": "508"
  }, {
    "name": "Sainsbury's",
    "longitude": -1.0336359,
    "latitude": 53.9566695,
    "address": "4 Farndale Avenue, York, YO10 3PE, United Kingdom",
    "meta": "509"
  }, {
    "name": "Sainsbury's",
    "longitude": -1.4720252,
    "latitude": 52.8945874,
    "address": "40 Victory Road, Derby, DE24 8ER, United Kingdom",
    "meta": "510"
  }, {
    "name": "Sainsbury's",
    "longitude": -3.0518622,
    "latitude": 52.8594551,
    "address": "Black Gate Street, Oswestry, SY11 2, United Kingdom",
    "meta": "511"
  }, {
    "name": "Sainsbury's",
    "longitude": -1.6928276,
    "latitude": 53.904052,
    "address": "61 Bondgate, Otley, LS21 3, United Kingdom",
    "meta": "512"
  }, {
    "name": "Sainsbury's",
    "longitude": -2.2498311,
    "latitude": 53.4778949,
    "address": "246 Deansgate, Manchester, M3 4, United Kingdom",
    "meta": "513"
  }, {
    "name": "Sainsbury's",
    "longitude": -1.2603453,
    "latitude": 51.7504009,
    "address": "2 Roger Bacon Lane, Oxford, OX1 1QE, United Kingdom",
    "meta": "514"
  }, {
    "name": "Sainsbury's",
    "longitude": -0.0041875,
    "latitude": 51.2584217,
    "address": "145 Station Road East, Oxted, RH8 0QD, United Kingdom",
    "meta": "515"
  }, {
    "name": "Sainsbury's",
    "longitude": -0.17741,
    "latitude": 51.517452,
    "address": "London, W2 6, United Kingdom",
    "meta": "516"
  }, {
    "name": "Sainsbury's",
    "longitude": -3.5977141,
    "latitude": 50.4201211,
    "address": "Yalberton Road, Paignton, TQ4 7, United Kingdom",
    "meta": "517"
  }, {
    "name": "Sainsbury's",
    "longitude": -0.3436523,
    "latitude": 53.7440284,
    "address": "84 Paragon Street, Hull, HU1 3QA, United Kingdom",
    "meta": "518"
  }, {
    "name": "Sainsbury's",
    "longitude": -4.3132988,
    "latitude": 55.872176,
    "address": "47 Crow Road, Glasgow, G11 7SH, United Kingdom",
    "meta": "519"
  }, {
    "name": "Sainsbury's",
    "longitude": -3.1890141,
    "latitude": 55.6528213,
    "address": "19 Northgate, Peebles, EH45 8RX, United Kingdom",
    "meta": "520"
  }, {
    "name": "Sainsbury's",
    "longitude": -0.0502846,
    "latitude": 51.4125372,
    "address": "172 High Street, London, SE20 7, United Kingdom",
    "meta": "521"
  }, {
    "name": "Sainsbury's",
    "longitude": -2.7417738,
    "latitude": 53.7399094,
    "address": "94 Birch Avenue, Preston, PR1 0LP, United Kingdom",
    "meta": "522"
  }, {
    "name": "Sainsbury's",
    "longitude": 0.3326453,
    "latitude": 51.4302609,
    "address": "139 Springhead Road, Gravesend, DA11 8, United Kingdom",
    "meta": "523"
  }, {
    "name": "Sainsbury's",
    "longitude": -2.2028227,
    "latitude": 52.5947893,
    "address": "Anders Square, Wolverhampton, WV6 7, United Kingdom",
    "meta": "524"
  }, {
    "name": "Sainsbury's",
    "longitude": -0.2106158,
    "latitude": 52.5889207,
    "address": "128 Oxney Road, Peterborough, PE1 5NG, United Kingdom",
    "meta": "525"
  }, {
    "name": "Sainsbury's",
    "longitude": -1.3530942,
    "latitude": 54.7566719,
    "address": "Grampian Drive, Peterlee, SR8 2, United Kingdom",
    "meta": "526"
  }, {
    "name": "Sainsbury's",
    "longitude": -2.2297939,
    "latitude": 53.4768647,
    "address": "Manchester, M60 7, United Kingdom",
    "meta": "527"
  }, {
    "name": "Sainsbury's",
    "longitude": -0.1412336,
    "latitude": 51.4932776,
    "address": "59 Wilton Road, London, SW1V 1DT, United Kingdom",
    "meta": "528"
  }, {
    "name": "Sainsbury's",
    "longitude": -3.4814708,
    "latitude": 50.7329544,
    "address": "8 Hill Barton Road, Exeter, EX1 3PF, United Kingdom",
    "meta": "529"
  }, {
    "name": "Sainsbury's",
    "longitude": -0.38092,
    "latitude": 51.5936681,
    "address": "Pinner, HA5 5, United Kingdom",
    "meta": "530"
  }, {
    "name": "Sainsbury's",
    "longitude": -4.1440283,
    "latitude": 50.3737675,
    "address": "Plymouth, PL1 1, United Kingdom",
    "meta": "531"
  }, {
    "name": "Sainsbury's",
    "longitude": -0.7768882,
    "latitude": 53.9277325,
    "address": "25 The Balk, York, YO42 2GG, United Kingdom",
    "meta": "532"
  }, {
    "name": "Sainsbury's",
    "longitude": -1.7399611,
    "latitude": 55.0498952,
    "address": "Ponteland Road, Newcastle upon Tyne, NE20 9, United Kingdom",
    "meta": "533"
  }, {
    "name": "Sainsbury's",
    "longitude": -1.9781893,
    "latitude": 50.7155354,
    "address": "Newfoundland Drive, Poole, BH15 1, United Kingdom",
    "meta": "534"
  }, {
    "name": "Sainsbury's",
    "longitude": -1.9357166,
    "latitude": 50.7245885,
    "address": "128 Bournemouth Road, Poole, BH14 9HY, United Kingdom",
    "meta": "535"
  }, {
    "name": "Sainsbury's",
    "longitude": -1.98674,
    "latitude": 50.7137739,
    "address": "44 High Street, Poole, BH15 1BT, United Kingdom",
    "meta": "536"
  }, {
    "name": "Sainsbury's",
    "longitude": -1.0890448,
    "latitude": 50.8040298,
    "address": "Andrew Bell Street, Portsmouth, PO1 4, United Kingdom",
    "meta": "537"
  }, {
    "name": "Sainsbury's",
    "longitude": 1.3614928,
    "latitude": 52.6307857,
    "address": "Mary Chapman Close, Norwich, NR7 0, United Kingdom",
    "meta": "538"
  }, {
    "name": "Sainsbury's",
    "longitude": -1.3618855,
    "latitude": 54.5627611,
    "address": "4 Aiskew Grove, Stockton-on-Tees, TS19 7, United Kingdom",
    "meta": "539"
  }, {
    "name": "Sainsbury's",
    "longitude": -2.6867228,
    "latitude": 53.7761247,
    "address": "Flintoff Way, Preston, PR1 6, United Kingdom",
    "meta": "540"
  }, {
    "name": "Sainsbury's",
    "longitude": -0.359823,
    "latitude": 53.754176,
    "address": "32 Princes Avenue, Hull, HU5 3QU, United Kingdom",
    "meta": "541"
  }, {
    "name": "Sainsbury's",
    "longitude": -1.1103173,
    "latitude": 53.3204888,
    "address": "8 Prospect Precinct, Worksop, S81 0, United Kingdom",
    "meta": "542"
  }, {
    "name": "Sainsbury's",
    "longitude": -1.6698968,
    "latitude": 53.7924255,
    "address": "Lawrence Court, Pudsey, LS28 7, United Kingdom",
    "meta": "543"
  }, {
    "name": "Sainsbury's",
    "longitude": -1.6637152,
    "latitude": 53.7961866,
    "address": "13 Church Lane, Pudsey, LS28 7LD, United Kingdom",
    "meta": "544"
  }, {
    "name": "Sainsbury's",
    "longitude": -0.4983591,
    "latitude": 50.9695288,
    "address": "Stane Street, Pulborough, RH20 1, United Kingdom",
    "meta": "545"
  }, {
    "name": "Sainsbury's",
    "longitude": -0.1176813,
    "latitude": 51.3757365,
    "address": "Drury Crescent, Croydon, CR0 4, United Kingdom",
    "meta": "546"
  }, {
    "name": "Sainsbury's",
    "longitude": -0.2138294,
    "latitude": 51.4618908,
    "address": "28 Werter Road, London, SW15 2LJ, United Kingdom",
    "meta": "547"
  }, {
    "name": "Sainsbury's",
    "longitude": -3.1917104,
    "latitude": 55.9440175,
    "address": "Edinburgh, EH3 9, United Kingdom",
    "meta": "548"
  }, {
    "name": "Sainsbury's",
    "longitude": -0.2072311,
    "latitude": 51.5379728,
    "address": "84 Salusbury Road, London, NW6 6RG, United Kingdom",
    "meta": "549"
  }, {
    "name": "Sainsbury's",
    "longitude": 1.2926802,
    "latitude": 52.6221652,
    "address": "Brazen Gate, Norwich, NR1 3, United Kingdom",
    "meta": "550"
  }, {
    "name": "Sainsbury's",
    "longitude": -4.2521557,
    "latitude": 55.8593601,
    "address": "73 Queen Street, Glasgow, G1 3DS, United Kingdom",
    "meta": "551"
  }, {
    "name": "Sainsbury's",
    "longitude": -1.2377952,
    "latitude": 53.7077114,
    "address": "9 Racca Green, Knottingley, WF11 8AT, United Kingdom",
    "meta": "552"
  }, {
    "name": "Sainsbury's",
    "longitude": -0.4028652,
    "latitude": 54.2734688,
    "address": "23 Ramshill Road, Scarborough, YO11 2, United Kingdom",
    "meta": "553"
  }, {
    "name": "Sainsbury's",
    "longitude": -1.3481757,
    "latitude": 53.4717207,
    "address": "5 The Parade, Rotherham, S62 7HX, United Kingdom",
    "meta": "554"
  }, {
    "name": "Sainsbury's",
    "longitude": 0.5999725,
    "latitude": 51.5745989,
    "address": "Stadium Way, Benfleet, SS7 3, United Kingdom",
    "meta": "555"
  }, {
    "name": "Sainsbury's",
    "longitude": -0.3711209,
    "latitude": 51.5766966,
    "address": "417 Rayners Lane, Pinner, HA5 5ER, United Kingdom",
    "meta": "556"
  }, {
    "name": "Sainsbury's",
    "longitude": -0.9740267,
    "latitude": 51.4567048,
    "address": "43 Friar Street, Reading, RG1 1DX, United Kingdom",
    "meta": "557"
  }, {
    "name": "Sainsbury's",
    "longitude": -3.0477694,
    "latitude": 53.8505086,
    "address": "Red Bank Road, Blackpool, FY2 9, United Kingdom",
    "meta": "558"
  }, {
    "name": "Sainsbury's",
    "longitude": -1.0699693,
    "latitude": 54.5926822,
    "address": "15 Larkswood Road, Redcar, TS10 4SD, United Kingdom",
    "meta": "559"
  }, {
    "name": "Sainsbury's",
    "longitude": -1.9393329,
    "latitude": 52.3136778,
    "address": "Redditch, B97 6, United Kingdom",
    "meta": "560"
  }, {
    "name": "Sainsbury's",
    "longitude": -0.167803,
    "latitude": 51.2408775,
    "address": "High Street, Redhill, RH1 1, United Kingdom",
    "meta": "561"
  }, {
    "name": "Sainsbury's",
    "longitude": -2.0008519,
    "latitude": 52.5969682,
    "address": "Reedswood Way, Walsall, WS2 8, United Kingdom",
    "meta": "562"
  }, {
    "name": "Sainsbury's",
    "longitude": -3.4615521,
    "latitude": 53.2938571,
    "address": "Rhyl Road, Rhyl, LL18 2, United Kingdom",
    "meta": "563"
  }, {
    "name": "Sainsbury's",
    "longitude": -2.9618129,
    "latitude": 53.451143,
    "address": "Cavendish Drive, Liverpool, L9 1, United Kingdom",
    "meta": "564"
  }, {
    "name": "Sainsbury's",
    "longitude": -0.2863276,
    "latitude": 51.4662699,
    "address": "66 Manor Grove, Richmond, TW9 4LT, United Kingdom",
    "meta": "565"
  }, {
    "name": "Sainsbury's",
    "longitude": -1.7919108,
    "latitude": 50.8470437,
    "address": "5 Meeting House Lane, Ringwood, BH24 1, United Kingdom",
    "meta": "566"
  }, {
    "name": "Sainsbury's",
    "longitude": -1.3972402,
    "latitude": 53.0549276,
    "address": "A610, Ripley, DE5 3, United Kingdom",
    "meta": "567"
  }, {
    "name": "Sainsbury's",
    "longitude": -1.5232768,
    "latitude": 54.1365493,
    "address": "Market Place East, Ripon, HG4 1, United Kingdom",
    "meta": "568"
  }, {
    "name": "Sainsbury's",
    "longitude": -1.8996212,
    "latitude": 53.7151387,
    "address": "195 Rochdale Road, Halifax, HX2 7NR, United Kingdom",
    "meta": "569"
  }, {
    "name": "Sainsbury's",
    "longitude": 0.180725,
    "latitude": 51.5758917,
    "address": "7 Exchange Street, Romford, RM1 1RX, United Kingdom",
    "meta": "570"
  }, {
    "name": "Sainsbury's",
    "longitude": -1.0759201,
    "latitude": 54.6024514,
    "address": "Roseberry Shopping Centre, Redcar, TS10 4, United Kingdom",
    "meta": "571"
  }, {
    "name": "Sainsbury's",
    "longitude": -1.4473294,
    "latitude": 53.6007653,
    "address": "123 Midland Road, Barnsley, S71 4PX, United Kingdom",
    "meta": "572"
  }, {
    "name": "Sainsbury's",
    "longitude": -1.2733011,
    "latitude": 52.3523165,
    "address": "379 Dunchurch Road, Rugby, CV22 6HU, United Kingdom",
    "meta": "573"
  }, {
    "name": "Sainsbury's",
    "longitude": -1.2566885,
    "latitude": 52.3722129,
    "address": "25 Clifton Road, Rugby, CV21 3PY, United Kingdom",
    "meta": "574"
  }, {
    "name": "Sainsbury's",
    "longitude": -0.4980535,
    "latitude": 50.8175132,
    "address": "Littlehampton, BN16 3, United Kingdom",
    "meta": "575"
  }, {
    "name": "Sainsbury's",
    "longitude": -1.7631759,
    "latitude": 54.9729161,
    "address": "B6317, Ryton, NE40 3, United Kingdom",
    "meta": "576"
  }, {
    "name": "Sainsbury's",
    "longitude": -2.3228778,
    "latitude": 53.425786,
    "address": "Wynnstay Road, Sale, M33 7, United Kingdom",
    "meta": "577"
  }, {
    "name": "Sainsbury's",
    "longitude": -2.268253,
    "latitude": 53.4765317,
    "address": "82 Regent Road, Salford, M5 4, United Kingdom",
    "meta": "578"
  }, {
    "name": "Sainsbury's",
    "longitude": -1.7977742,
    "latitude": 51.0693411,
    "address": "16 The Maltings, Salisbury, SP1 1BD, United Kingdom",
    "meta": "579"
  }, {
    "name": "Sainsbury's",
    "longitude": -0.9738435,
    "latitude": 54.5829285,
    "address": "8 Station Street, Saltburn by the Sea, TS12 1AE, United Kingdom",
    "meta": "580"
  }, {
    "name": "Sainsbury's",
    "longitude": -4.7907538,
    "latitude": 55.6346813,
    "address": "42 Hamilton Street, Saltcoats, KA21 5DS, United Kingdom",
    "meta": "581"
  }, {
    "name": "Sainsbury's",
    "longitude": -1.2326366,
    "latitude": 54.54949,
    "address": "68 Saltersgill Avenue, Middlesbrough, TS4 3JT, United Kingdom",
    "meta": "582"
  }, {
    "name": "Sainsbury's",
    "longitude": -4.2612745,
    "latitude": 55.8651611,
    "address": "235 Sauchiehall Street, Glasgow, G2 3, United Kingdom",
    "meta": "583"
  }, {
    "name": "Sainsbury's",
    "longitude": -0.6622326,
    "latitude": 53.5905414,
    "address": "78 Doncaster Road, Scunthorpe, DN15 7DE, United Kingdom",
    "meta": "584"
  }, {
    "name": "Sainsbury's",
    "longitude": -1.339043,
    "latitude": 54.8449824,
    "address": "Featherbed Court, Seaham, SR7 7, United Kingdom",
    "meta": "585"
  }, {
    "name": "Sainsbury's",
    "longitude": -1.449725,
    "latitude": 54.6551856,
    "address": "27 White House Drive, Stockton-on-Tees, TS21 3BX, United Kingdom",
    "meta": "586"
  }, {
    "name": "Sainsbury's",
    "longitude": 0.5511852,
    "latitude": 50.8870787,
    "address": "John Macadam Way, St Leonards on Sea, TN37 7, United Kingdom",
    "meta": "587"
  }, {
    "name": "Sainsbury's",
    "longitude": -1.0704743,
    "latitude": 53.7844046,
    "address": "Abbey Walk, Selby, YO8 4, United Kingdom",
    "meta": "588"
  }, {
    "name": "Sainsbury's",
    "longitude": -1.9395177,
    "latitude": 52.4411979,
    "address": "1 Chapel Lane, Birmingham, B29 6, United Kingdom",
    "meta": "589"
  }, {
    "name": "Sainsbury's",
    "longitude": -0.0637532,
    "latitude": 51.3425924,
    "address": "103 Addington Road, South Croydon, CR2 8LA, United Kingdom",
    "meta": "590"
  }, {
    "name": "Sainsbury's",
    "longitude": 0.1911709,
    "latitude": 51.2954594,
    "address": "Otford Road, Sevenoaks, TN14 5, United Kingdom",
    "meta": "591"
  }, {
    "name": "Sainsbury's",
    "longitude": -1.4087824,
    "latitude": 53.5913472,
    "address": "Two Gates Way, Barnsley, S72 8, United Kingdom",
    "meta": "592"
  }, {
    "name": "Sainsbury's",
    "longitude": -0.1805658,
    "latitude": 51.5191801,
    "address": "Sheldon Square, London, W2 6, United Kingdom",
    "meta": "593"
  }, {
    "name": "Sainsbury's",
    "longitude": -0.2231423,
    "latitude": 51.5045938,
    "address": "124 Uxbridge Road, London, W12 8AA, United Kingdom",
    "meta": "594"
  }, {
    "name": "Sainsbury's",
    "longitude": -2.5122572,
    "latitude": 50.9451729,
    "address": "29 Ludbourne Road, Sherborne, DT9 3NJ, United Kingdom",
    "meta": "595"
  }, {
    "name": "Sainsbury's",
    "longitude": -1.4342727,
    "latitude": 50.923861,
    "address": "Regents Grove, Southampton, SO16 4, United Kingdom",
    "meta": "596"
  }, {
    "name": "Sainsbury's",
    "longitude": -1.7756937,
    "latitude": 53.646781,
    "address": "Watergate, Huddersfield, HD1 1, United Kingdom",
    "meta": "597"
  }, {
    "name": "Sainsbury's",
    "longitude": -2.7520971,
    "latitude": 52.6887953,
    "address": "Shrewsbury, SY3 9, United Kingdom",
    "meta": "598"
  }, {
    "name": "Sainsbury's",
    "longitude": 0.120345,
    "latitude": 52.2066995,
    "address": "43 Sidney Street, Cambridge, CB2 3HX, United Kingdom",
    "meta": "599"
  }, {
    "name": "Sainsbury's",
    "longitude": -1.4524966,
    "latitude": 54.9694431,
    "address": "1 Binchester Street, South Shields, NE34 9AR, United Kingdom",
    "meta": "600"
  }, {
    "name": "Sainsbury's",
    "longitude": 0.7349406,
    "latitude": 51.337895,
    "address": "Avenue of Remembrance, Sittingbourne, ME10 4, United Kingdom",
    "meta": "601"
  }, {
    "name": "Sainsbury's",
    "longitude": -0.9691483,
    "latitude": 54.5615475,
    "address": "12 Byland Road, Saltburn by the Sea, TS12 2NJ, United Kingdom",
    "meta": "602"
  }, {
    "name": "Sainsbury's",
    "longitude": -0.4108126,
    "latitude": 52.99843,
    "address": "Southgate, Sleaford, NG34 7, United Kingdom",
    "meta": "603"
  }, {
    "name": "Sainsbury's",
    "longitude": -0.1652529,
    "latitude": 51.4920858,
    "address": "63 Sloane Avenue, London, SW3 3HN, United Kingdom",
    "meta": "604"
  }, {
    "name": "Sainsbury's",
    "longitude": -0.6157691,
    "latitude": 51.5247495,
    "address": "163 Farnham Road, Slough, SL1 4, United Kingdom",
    "meta": "605"
  }, {
    "name": "Sainsbury's",
    "longitude": -1.354653,
    "latitude": 53.7209493,
    "address": "27 Smawthorne Lane, Castleford, WF10 4EN, United Kingdom",
    "meta": "606"
  }, {
    "name": "Sainsbury's",
    "longitude": -1.7776094,
    "latitude": 52.4142055,
    "address": "Poplar Way, Solihull, B91 3, United Kingdom",
    "meta": "607"
  }, {
    "name": "Sainsbury's",
    "longitude": -0.3070397,
    "latitude": 51.5026494,
    "address": "14 Barnsley Road, Pontefract, WF9 2SE, United Kingdom",
    "meta": "608"
  }, {
    "name": "Sainsbury's",
    "longitude": -1.2894902,
    "latitude": 53.594907,
    "address": "56 South Ealing Road, London, W5 4QT, United Kingdom",
    "meta": "609"
  }, {
    "name": "Sainsbury's",
    "longitude": -0.3561365,
    "latitude": 51.5624049,
    "address": "321 Northolt Road, Harrow, HA2 8, United Kingdom",
    "meta": "610"
  }, {
    "name": "Sainsbury's",
    "longitude": -1.5615658,
    "latitude": 53.6759077,
    "address": "93 South Parade, Ossett, WF5 0EB, United Kingdom",
    "meta": "611"
  }, {
    "name": "Sainsbury's",
    "longitude": -0.3967554,
    "latitude": 51.5574244,
    "address": "16 Long Drive, Ruislip, HA4 0HG, United Kingdom",
    "meta": "612"
  }, {
    "name": "Sainsbury's",
    "longitude": -1.4079308,
    "latitude": 54.9720956,
    "address": "319 Prince Edward Road, South Shields, NE34 7LZ, United Kingdom",
    "meta": "613"
  }, {
    "name": "Sainsbury's",
    "longitude": 0.0248924,
    "latitude": 51.5939045,
    "address": "172 George Lane, London, E18 1AY, United Kingdom",
    "meta": "614"
  }, {
    "name": "Sainsbury's",
    "longitude": 0.7090407,
    "latitude": 51.5401868,
    "address": "50 London Road, Southend-on-Sea, SS1 1, United Kingdom",
    "meta": "615"
  }, {
    "name": "Sainsbury's",
    "longitude": -0.1971315,
    "latitude": 51.4396454,
    "address": "450 Durnsford Road, London, SW19 8DZ, United Kingdom",
    "meta": "616"
  }, {
    "name": "Sainsbury's",
    "longitude": -3.0024603,
    "latitude": 53.6492517,
    "address": "St Georges Place, Southport, PR9 0, United Kingdom",
    "meta": "617"
  }, {
    "name": "Sainsbury's",
    "longitude": -0.1542023,
    "latitude": 52.7883864,
    "address": "Swan Street, Spalding, PE11 1, United Kingdom",
    "meta": "618"
  }, {
    "name": "Sainsbury's",
    "longitude": -0.3528943,
    "latitude": 53.7499227,
    "address": "73 Morpeth Street, Hull, HU3 1QJ, United Kingdom",
    "meta": "619"
  }, {
    "name": "Sainsbury's",
    "longitude": 0.5133094,
    "latitude": 51.7524479,
    "address": "Chelmsford, CM2 5, United Kingdom",
    "meta": "620"
  }, {
    "name": "Sainsbury's",
    "longitude": -1.157862,
    "latitude": 53.524883,
    "address": "Sprotbrough Road, Doncaster, DN5 8, United Kingdom",
    "meta": "621"
  }, {
    "name": "Sainsbury's",
    "longitude": -0.3437434,
    "latitude": 51.7443165,
    "address": "111 Holywell Hill, St Albans, AL1 2QU, United Kingdom",
    "meta": "622"
  }, {
    "name": "Sainsbury's",
    "longitude": -3.1942843,
    "latitude": 55.9534847,
    "address": "9 St Andrew Square, Edinburgh, EH2 2, United Kingdom",
    "meta": "623"
  }, {
    "name": "Sainsbury's",
    "longitude": -0.3733416,
    "latitude": 51.4345859,
    "address": "301 Uxbridge Road, Hampton, TW12 1AW, United Kingdom",
    "meta": "624"
  }, {
    "name": "Sainsbury's",
    "longitude": 0.2604392,
    "latitude": 51.1415076,
    "address": "66 St Johns Road, Tunbridge Wells, TN4 9PE, United Kingdom",
    "meta": "625"
  }, {
    "name": "Sainsbury's",
    "longitude": -2.1208608,
    "latitude": 52.8083475,
    "address": "Chell Road, Stafford, ST16 2, United Kingdom",
    "meta": "626"
  }, {
    "name": "Sainsbury's",
    "longitude": -1.6495619,
    "latitude": 53.7048885,
    "address": "2 Chapel Fold, Batley, WF17 7BE, United Kingdom",
    "meta": "627"
  }, {
    "name": "Sainsbury's",
    "longitude": -0.5212825,
    "latitude": 51.4333256,
    "address": "The Causeway, Staines, TW18 3, United Kingdom",
    "meta": "628"
  }, {
    "name": "Sainsbury's",
    "longitude": -0.3110273,
    "latitude": 51.6175914,
    "address": "3 The Broadway, Stanmore, HA7 4DA, United Kingdom",
    "meta": "629"
  }, {
    "name": "Sainsbury's",
    "longitude": 0.8330257,
    "latitude": 51.883681,
    "address": "Colchester, CO3 8, United Kingdom",
    "meta": "630"
  }, {
    "name": "Sainsbury's",
    "longitude": -0.4752714,
    "latitude": 51.4506213,
    "address": "Hadrian Way, Staines, TW19 7, United Kingdom",
    "meta": "631"
  }, {
    "name": "Sainsbury's",
    "longitude": -1.2801286,
    "latitude": 52.9261038,
    "address": "148 Derby Road, Nottingham, NG9 7AS, United Kingdom",
    "meta": "632"
  }, {
    "name": "Sainsbury's",
    "longitude": -1.2616446,
    "latitude": 52.9364357,
    "address": "71 Central Avenue, Nottingham, NG9 8PU, United Kingdom",
    "meta": "633"
  }, {
    "name": "Sainsbury's",
    "longitude": 0.0110733,
    "latitude": 51.3771399,
    "address": "19 Station Approach, Bromley, BR2 7EQ, United Kingdom",
    "meta": "634"
  }, {
    "name": "Sainsbury's",
    "longitude": -0.1590539,
    "latitude": 51.894024,
    "address": "Magpie Crescent, Stevenage, SG2 9, United Kingdom",
    "meta": "635"
  }, {
    "name": "Sainsbury's",
    "longitude": -2.1566384,
    "latitude": 53.4128091,
    "address": "23 Warren Street, Stockport, SK1 1UB, United Kingdom",
    "meta": "636"
  }, {
    "name": "Sainsbury's",
    "longitude": -2.5803006,
    "latitude": 53.3690395,
    "address": "106 London Road, Warrington, WA4 6LE, United Kingdom",
    "meta": "637"
  }, {
    "name": "Sainsbury's",
    "longitude": -0.0740311,
    "latitude": 51.5600811,
    "address": "111 Stoke Newington High Street, London, N16 7NY, United Kingdom",
    "meta": "638"
  }, {
    "name": "Sainsbury's",
    "longitude": -2.1858017,
    "latitude": 53.002295,
    "address": "Fleming Road, Stoke-on-Trent, ST4 1, United Kingdom",
    "meta": "639"
  }, {
    "name": "Sainsbury's",
    "longitude": -3.162796,
    "latitude": 55.8853851,
    "address": "Straiton Mains, Loanhead, EH20 9, United Kingdom",
    "meta": "640"
  }, {
    "name": "Sainsbury's",
    "longitude": -0.0004107,
    "latitude": 51.54178,
    "address": "London, E15 1, United Kingdom",
    "meta": "641"
  }, {
    "name": "Sainsbury's",
    "longitude": -1.7284539,
    "latitude": 51.5768608,
    "address": "Swindon, SN3 4, United Kingdom",
    "meta": "642"
  }, {
    "name": "Sainsbury's",
    "longitude": -0.1281566,
    "latitude": 51.4198345,
    "address": "482 Streatham High Road, London, SW16 3, United Kingdom",
    "meta": "643"
  }, {
    "name": "Sainsbury's",
    "longitude": -0.1251401,
    "latitude": 51.4405362,
    "address": "102 Streatham Hill, London, SW2 4, United Kingdom",
    "meta": "644"
  }, {
    "name": "Sainsbury's",
    "longitude": -0.1289202,
    "latitude": 51.4325945,
    "address": "166 Streatham High Road, London, SW16 1BJ, United Kingdom",
    "meta": "645"
  }, {
    "name": "Sainsbury's",
    "longitude": -2.7550193,
    "latitude": 51.1272447,
    "address": "28 Houndwood Drove, Street, BA16 9PP, United Kingdom",
    "meta": "646"
  }, {
    "name": "Sainsbury's",
    "longitude": -2.240124,
    "latitude": 51.7395543,
    "address": "Dudbridge Hill, Stroud, GL5 3, United Kingdom",
    "meta": "647"
  }, {
    "name": "Sainsbury's",
    "longitude": -1.4045159,
    "latitude": 54.8860533,
    "address": "Silksworth Lane, Sunderland, SR3 1, United Kingdom",
    "meta": "648"
  }, {
    "name": "Sainsbury's",
    "longitude": -1.2780039,
    "latitude": 53.4304362,
    "address": "91 Flanderwell Lane, Rotherham, S66 3, United Kingdom",
    "meta": "649"
  }, {
    "name": "Sainsbury's",
    "longitude": -0.3087067,
    "latitude": 51.3913253,
    "address": "46 Victoria Road, Surbiton, KT6 4JL, United Kingdom",
    "meta": "650"
  }, {
    "name": "Sainsbury's",
    "longitude": -0.3019024,
    "latitude": 51.423665,
    "address": "234 Richmond Road, Kingston upon Thames, KT2 5PE, United Kingdom",
    "meta": "651"
  }, {
    "name": "Sainsbury's",
    "longitude": -0.3437466,
    "latitude": 53.7846092,
    "address": "53 Grandale, Hull, HU7 4BL, United Kingdom",
    "meta": "652"
  }, {
    "name": "Sainsbury's",
    "longitude": -1.5584513,
    "latitude": 52.7747211,
    "address": "Civic Way, Swadlincote, DE11 0, United Kingdom",
    "meta": "653"
  }, {
    "name": "Sainsbury's",
    "longitude": -3.9352941,
    "latitude": 51.6200291,
    "address": "1 Quay Parade, Swansea, SA1 8JA, United Kingdom",
    "meta": "654"
  }, {
    "name": "Sainsbury's",
    "longitude": -1.7857059,
    "latitude": 51.5603653,
    "address": "Havelock Square, Swindon, SN1 1, United Kingdom",
    "meta": "655"
  }, {
    "name": "Sainsbury's",
    "longitude": -0.0338881,
    "latitude": 51.4297854,
    "address": "London, SE26 5, United Kingdom",
    "meta": "656"
  }, {
    "name": "Sainsbury's",
    "longitude": -1.2604876,
    "latitude": 53.8863579,
    "address": "Mill Lane, Tadcaster, LS24 8, United Kingdom",
    "meta": "657"
  }, {
    "name": "Sainsbury's",
    "longitude": -1.1414938,
    "latitude": 51.3551905,
    "address": "28 Mulfords Hill, Tadley, RG26 3JE, United Kingdom",
    "meta": "658"
  }, {
    "name": "Sainsbury's",
    "longitude": -1.9115641,
    "latitude": 50.7384198,
    "address": "Alder Park, Poole, BH12 4, United Kingdom",
    "meta": "659"
  }, {
    "name": "Sainsbury's",
    "longitude": -1.7070012,
    "latitude": 52.6277777,
    "address": "Tamworth, B78 3, United Kingdom",
    "meta": "660"
  }, {
    "name": "Sainsbury's",
    "longitude": -0.6690147,
    "latitude": 51.5204476,
    "address": "1 Farm Road, Maidenhead, SL6 0PS, United Kingdom",
    "meta": "661"
  }, {
    "name": "Sainsbury's",
    "longitude": -3.0993808,
    "latitude": 51.0135943,
    "address": "18 Billet Street, Taunton, TA1 3NG, United Kingdom",
    "meta": "662"
  }, {
    "name": "Sainsbury's",
    "longitude": -1.6070829,
    "latitude": 54.9235669,
    "address": "Eleventh Avenue, Gateshead, NE11 0, United Kingdom",
    "meta": "663"
  }, {
    "name": "Sainsbury's",
    "longitude": -1.3042677,
    "latitude": 54.5604607,
    "address": "Pearson Way, Stockton-on-Tees, TS17 6, United Kingdom",
    "meta": "664"
  }, {
    "name": "Sainsbury's",
    "longitude": -2.4529187,
    "latitude": 52.6821649,
    "address": "Telford, TF3 4, United Kingdom",
    "meta": "665"
  }, {
    "name": "Sainsbury's",
    "longitude": -2.1046228,
    "latitude": 51.9185063,
    "address": "Cheltenham, GL51 9, United Kingdom",
    "meta": "666"
  }, {
    "name": "Sainsbury's",
    "longitude": 1.3953415,
    "latitude": 51.3579487,
    "address": "Broadstairs, CT10 2, United Kingdom",
    "meta": "667"
  }, {
    "name": "Sainsbury's",
    "longitude": -1.4769815,
    "latitude": 53.3723312,
    "address": "15 London Road, Sheffield, S2 4LA, United Kingdom",
    "meta": "668"
  }, {
    "name": "Sainsbury's",
    "longitude": -1.4732719,
    "latitude": 53.3764713,
    "address": "65 The Moor, Sheffield, S1 4, United Kingdom",
    "meta": "669"
  }, {
    "name": "Sainsbury's",
    "longitude": 0.7233847,
    "latitude": 52.4056845,
    "address": "Forest Retail Park, Thetford, IP24 3, United Kingdom",
    "meta": "670"
  }, {
    "name": "Sainsbury's",
    "longitude": 0.1445034,
    "latitude": 51.8585921,
    "address": "Bishops Stortford, CM23 4, United Kingdom",
    "meta": "671"
  }, {
    "name": "Sainsbury's",
    "longitude": -1.2983505,
    "latitude": 54.5452621,
    "address": "Sycamore Avenue, Stockton-on-Tees, TS17 8, United Kingdom",
    "meta": "672"
  }, {
    "name": "Sainsbury's",
    "longitude": -1.0768208,
    "latitude": 53.5451765,
    "address": "Doncaster, DN2 4, United Kingdom",
    "meta": "673"
  }, {
    "name": "Sainsbury's",
    "longitude": -3.1945488,
    "latitude": 51.5376786,
    "address": "Excalibur Drive, Cardiff, CF14 9, United Kingdom",
    "meta": "674"
  }, {
    "name": "Sainsbury's",
    "longitude": 0.2755544,
    "latitude": 51.1928628,
    "address": "Sovereign Road, Tonbridge, TN9 1, United Kingdom",
    "meta": "675"
  }, {
    "name": "Sainsbury's",
    "longitude": -0.1688698,
    "latitude": 51.4271916,
    "address": "89 Tooting High Street, London, SW17 0, United Kingdom",
    "meta": "676"
  }, {
    "name": "Sainsbury's",
    "longitude": -0.1582462,
    "latitude": 51.4353041,
    "address": "20 Tooting Bec Road, London, SW17 8BD, United Kingdom",
    "meta": "677"
  }, {
    "name": "Sainsbury's",
    "longitude": -3.555019,
    "latitude": 50.4870226,
    "address": "Nicholson Road, Torquay, TQ2 7, United Kingdom",
    "meta": "678"
  }, {
    "name": "Sainsbury's",
    "longitude": -0.0680329,
    "latitude": 51.607281,
    "address": "861 High Road, London, N17 8EY, United Kingdom",
    "meta": "679"
  }, {
    "name": "Sainsbury's",
    "longitude": -0.1310429,
    "latitude": 51.5173551,
    "address": "17 Tottenham Court Road, London, W1T 1, United Kingdom",
    "meta": "680"
  }, {
    "name": "Sainsbury's",
    "longitude": -5.0679253,
    "latitude": 50.260974,
    "address": "Treyew Road, Truro, TR1 3, United Kingdom",
    "meta": "681"
  }, {
    "name": "Sainsbury's",
    "longitude": -1.4654307,
    "latitude": 53.3749478,
    "address": "Mortimer Street, Sheffield, S1 4, United Kingdom",
    "meta": "682"
  }, {
    "name": "Sainsbury's",
    "longitude": 0.2573812,
    "latitude": 51.1239517,
    "address": "8 Linden Park Road, Tunbridge Wells, TN2 5QL, United Kingdom",
    "meta": "683"
  }, {
    "name": "Sainsbury's",
    "longitude": -0.0820102,
    "latitude": 51.4177324,
    "address": "49 Westow Street, London, SE19 3RW, United Kingdom",
    "meta": "684"
  }, {
    "name": "Sainsbury's",
    "longitude": -0.1029379,
    "latitude": 51.5373992,
    "address": "99 Upper Street, London, N1 2XQ, United Kingdom",
    "meta": "685"
  }, {
    "name": "Sainsbury's",
    "longitude": -3.1022923,
    "latitude": 53.3795617,
    "address": "Wirral, CH49 0, United Kingdom",
    "meta": "686"
  }, {
    "name": "Sainsbury's",
    "longitude": -0.4771426,
    "latitude": 51.54802,
    "address": "York Road, Uxbridge, UB8 1, United Kingdom",
    "meta": "687"
  }, {
    "name": "Sainsbury's",
    "longitude": -0.1383935,
    "latitude": 51.4973781,
    "address": "9 Victoria Street, London, SW1E 6SH, United Kingdom",
    "meta": "688"
  }, {
    "name": "Sainsbury's",
    "longitude": -0.1463345,
    "latitude": 51.4946858,
    "address": "96 Buckingham Palace Road, London, SW1W 0DT, United Kingdom",
    "meta": "689"
  }, {
    "name": "Sainsbury's",
    "longitude": -1.4993982,
    "latitude": 53.677714,
    "address": "Wakefield, WF1 1, United Kingdom",
    "meta": "690"
  }, {
    "name": "Sainsbury's",
    "longitude": -1.5191807,
    "latitude": 53.618435,
    "address": "Water Lane, Wakefield, WF4 2, United Kingdom",
    "meta": "691"
  }, {
    "name": "Sainsbury's",
    "longitude": -0.1462841,
    "latitude": 51.358084,
    "address": "21 Stafford Road, Wallington, SM6 9AN, United Kingdom",
    "meta": "692"
  }, {
    "name": "Sainsbury's",
    "longitude": -0.032156,
    "latitude": 51.6864636,
    "address": "33 Eleanor Cross Road, Waltham Cross, EN8 7PQ, United Kingdom",
    "meta": "693"
  }, {
    "name": "Sainsbury's",
    "longitude": -0.0276141,
    "latitude": 51.5830312,
    "address": "135 High Street, London, E17 6QA, United Kingdom",
    "meta": "694"
  }, {
    "name": "Sainsbury's",
    "longitude": -0.4223639,
    "latitude": 51.3845417,
    "address": "45 New Zealand Avenue, Walton-on-Thames, KT12 1, United Kingdom",
    "meta": "695"
  }, {
    "name": "Sainsbury's",
    "longitude": -0.1916838,
    "latitude": 51.4542945,
    "address": "45 Garratt Lane, London, SW18 4AD, United Kingdom",
    "meta": "696"
  }, {
    "name": "Sainsbury's",
    "longitude": -0.1499798,
    "latitude": 51.4663446,
    "address": "642 Wandsworth Road, London, SW8 3JW, United Kingdom",
    "meta": "697"
  }, {
    "name": "Sainsbury's",
    "longitude": -1.4262904,
    "latitude": 51.5907269,
    "address": "Limborough Road, Wantage, OX12 9, United Kingdom",
    "meta": "698"
  }, {
    "name": "Sainsbury's",
    "longitude": -0.0433745,
    "latitude": 51.3070433,
    "address": "632 Limpsfield Road, Warlingham, CR6 9, United Kingdom",
    "meta": "699"
  }, {
    "name": "Sainsbury's",
    "longitude": 1.205467,
    "latitude": 52.0361509,
    "address": "625 Felixstowe Road, Ipswich, IP3 8TQ, United Kingdom",
    "meta": "700"
  }, {
    "name": "Sainsbury's",
    "longitude": -0.137433,
    "latitude": 51.5239624,
    "address": "145 Tottenham Court Road, London, W1T 7AD, United Kingdom",
    "meta": "701"
  }, {
    "name": "Sainsbury's",
    "longitude": -2.582823,
    "latitude": 53.3917372,
    "address": "School Brow, Warrington, WA1 2, United Kingdom",
    "meta": "702"
  }, {
    "name": "Sainsbury's",
    "longitude": -1.5929866,
    "latitude": 52.2848661,
    "address": "70 Saltisford, Warwick, CV34 4AF, United Kingdom",
    "meta": "703"
  }, {
    "name": "Sainsbury's",
    "longitude": -1.5772995,
    "latitude": 52.2848538,
    "address": "61 Coten End, Warwick, CV34 4NU, United Kingdom",
    "meta": "704"
  }, {
    "name": "Sainsbury's",
    "longitude": -1.532701,
    "latitude": 54.9001212,
    "address": "Washington, NE38 7, United Kingdom",
    "meta": "705"
  }, {
    "name": "Sainsbury's",
    "longitude": -0.7618316,
    "latitude": 51.3232781,
    "address": "73 Crabtree Road, Camberley, GU15 3YN, United Kingdom",
    "meta": "706"
  }, {
    "name": "Sainsbury's",
    "longitude": -0.7768705,
    "latitude": 51.2219743,
    "address": "Farnham, GU9 9, United Kingdom",
    "meta": "707"
  }, {
    "name": "Sainsbury's",
    "longitude": -0.1103661,
    "latitude": 51.5025587,
    "address": "Pear Place, London, SE1 8, United Kingdom",
    "meta": "708"
  }, {
    "name": "Sainsbury's",
    "longitude": -0.3991745,
    "latitude": 51.65836,
    "address": "Gaumont Approach, Watford, WD17 1, United Kingdom",
    "meta": "709"
  }, {
    "name": "Sainsbury's",
    "longitude": -2.086322,
    "latitude": 52.597496,
    "address": "Wolverhampton, WV11 1, United Kingdom",
    "meta": "710"
  }, {
    "name": "Sainsbury's",
    "longitude": -0.9355371,
    "latitude": 52.239031,
    "address": "20 Gambrel Road, Northampton, NN5 5, United Kingdom",
    "meta": "711"
  }, {
    "name": "Sainsbury's",
    "longitude": -0.0745245,
    "latitude": 53.5594238,
    "address": "186 Welholme Road, Grimsby, DN32 9LP, United Kingdom",
    "meta": "712"
  }, {
    "name": "Sainsbury's",
    "longitude": -0.7206778,
    "latitude": 52.2922611,
    "address": "Wellingborough, NN8 3, United Kingdom",
    "meta": "713"
  }, {
    "name": "Sainsbury's",
    "longitude": -3.1491529,
    "latitude": 52.6614757,
    "address": "Brook Street, Welshpool, SY21 7, United Kingdom",
    "meta": "714"
  }, {
    "name": "Sainsbury's",
    "longitude": -0.2081711,
    "latitude": 51.8004913,
    "address": "30 Church Road, Welwyn Garden City, AL8 6, United Kingdom",
    "meta": "715"
  }, {
    "name": "Sainsbury's",
    "longitude": -0.3248343,
    "latitude": 51.5094478,
    "address": "Melbourne Avenue, London, W13 9, United Kingdom",
    "meta": "716"
  }, {
    "name": "Sainsbury's",
    "longitude": -0.1921178,
    "latitude": 51.1240346,
    "address": "Crawley Avenue, Crawley, RH11 7, United Kingdom",
    "meta": "717"
  }, {
    "name": "Sainsbury's",
    "longitude": -0.2050141,
    "latitude": 50.842235,
    "address": "A293, Brighton, BN41 2, United Kingdom",
    "meta": "718"
  }, {
    "name": "Sainsbury's",
    "longitude": -0.1036975,
    "latitude": 51.4337561,
    "address": "382 Norwood Road, London, SE27 9, United Kingdom",
    "meta": "719"
  }, {
    "name": "Sainsbury's",
    "longitude": 1.1638597,
    "latitude": 51.095919,
    "address": "Park Farm Road, Folkestone, CT19 5, United Kingdom",
    "meta": "720"
  }, {
    "name": "Sainsbury's",
    "longitude": -0.0143671,
    "latitude": 51.3769971,
    "address": "75 Station Road, West Wickham, BR4 0PU, United Kingdom",
    "meta": "721"
  }, {
    "name": "Sainsbury's",
    "longitude": -0.1932939,
    "latitude": 51.5152098,
    "address": "99 Westbourne Grove, London, W2 5RT, United Kingdom",
    "meta": "722"
  }, {
    "name": "Sainsbury's",
    "longitude": -1.2991932,
    "latitude": 54.5544343,
    "address": "61 Westbury Street, Stockton-on-Tees, TS17 6NP, United Kingdom",
    "meta": "723"
  }, {
    "name": "Sainsbury's",
    "longitude": -1.2105326,
    "latitude": 53.1502019,
    "address": "86 Westfield Lane, Mansfield, NG19 6AQ, United Kingdom",
    "meta": "724"
  }, {
    "name": "Sainsbury's",
    "longitude": -1.485694,
    "latitude": 53.3839919,
    "address": "Weston Street, Sheffield, S3 7, United Kingdom",
    "meta": "725"
  }, {
    "name": "Sainsbury's",
    "longitude": -1.3888739,
    "latitude": 53.9304441,
    "address": "7 Crossley Street, Wetherby, LS22 6RT, United Kingdom",
    "meta": "726"
  }, {
    "name": "Sainsbury's",
    "longitude": -1.5742286,
    "latitude": 53.7586504,
    "address": "Leeds, LS11 8, United Kingdom",
    "meta": "727"
  }, {
    "name": "Sainsbury's",
    "longitude": -0.0587206,
    "latitude": 51.5211442,
    "address": "31 Brady Street, London, E1 5SD, United Kingdom",
    "meta": "728"
  }, {
    "name": "Sainsbury's",
    "longitude": -2.7396125,
    "latitude": 52.6949692,
    "address": "1 Whitecroft Road, Shrewsbury, SY3 7TJ, United Kingdom",
    "meta": "729"
  }, {
    "name": "Sainsbury's",
    "longitude": -1.3392351,
    "latitude": 54.57224,
    "address": "20 Barlborough Avenue, Stockton-on-Tees, TS19 0QB, United Kingdom",
    "meta": "730"
  }, {
    "name": "Sainsbury's",
    "longitude": -1.4801831,
    "latitude": 55.0441261,
    "address": "Whitley Bay, NE25 9, United Kingdom",
    "meta": "731"
  }, {
    "name": "Sainsbury's",
    "longitude": 1.061535,
    "latitude": 51.3576367,
    "address": "Whitstable, CT5 3, United Kingdom",
    "meta": "732"
  }, {
    "name": "Sainsbury's",
    "longitude": -2.2418406,
    "latitude": 53.4745898,
    "address": "53 Whitworth Street West, Manchester, M1 6, United Kingdom",
    "meta": "733"
  }, {
    "name": "Sainsbury's",
    "longitude": -0.0210158,
    "latitude": 51.3771141,
    "address": "139 High Street, West Wickham, BR4 0LZ, United Kingdom",
    "meta": "734"
  }, {
    "name": "Sainsbury's",
    "longitude": -2.6551329,
    "latitude": 53.5195959,
    "address": "Worthington Way, Wigan, WN3 6, United Kingdom",
    "meta": "735"
  }, {
    "name": "Sainsbury's",
    "longitude": -1.1046954,
    "latitude": 52.5856972,
    "address": "22 Bell Street, Wigston, LE18 1AD, United Kingdom",
    "meta": "736"
  }, {
    "name": "Sainsbury's",
    "longitude": -0.4462841,
    "latitude": 53.7569343,
    "address": "2 Kingston Road, Hull, HU10 6, United Kingdom",
    "meta": "737"
  }, {
    "name": "Sainsbury's",
    "longitude": -0.2258301,
    "latitude": 51.5475754,
    "address": "23 High Road, London, NW10 2TE, United Kingdom",
    "meta": "738"
  }, {
    "name": "Sainsbury's",
    "longitude": -0.221491,
    "latitude": 51.5487622,
    "address": "88 Walm Lane, London, NW2 4QY, United Kingdom",
    "meta": "739"
  }, {
    "name": "Sainsbury's",
    "longitude": -2.2341427,
    "latitude": 53.324539,
    "address": "49 Alderley Road, Wilmslow, SK9 1NZ, United Kingdom",
    "meta": "740"
  }, {
    "name": "Sainsbury's",
    "longitude": -0.2094939,
    "latitude": 51.421186,
    "address": "14 Worple Road, London, SW19 4DH, United Kingdom",
    "meta": "741"
  }, {
    "name": "Sainsbury's",
    "longitude": -1.3116626,
    "latitude": 51.062215,
    "address": "5 St Georges Street, Winchester, SO23 8, United Kingdom",
    "meta": "742"
  }, {
    "name": "Sainsbury's",
    "longitude": -0.2748424,
    "latitude": 53.7676262,
    "address": "663 Marfleet Lane, Hull, HU9 4TN, United Kingdom",
    "meta": "743"
  }, {
    "name": "Sainsbury's",
    "longitude": -0.0968541,
    "latitude": 51.6303978,
    "address": "699 Green Lanes, London, N21 3RS, United Kingdom",
    "meta": "744"
  }, {
    "name": "Sainsbury's",
    "longitude": -0.8782355,
    "latitude": 51.4280261,
    "address": "15 King Street Lane, Wokingham, RG41 5AR, United Kingdom",
    "meta": "745"
  }, {
    "name": "Sainsbury's",
    "longitude": -2.6182233,
    "latitude": 51.4348552,
    "address": "115 Winterstoke Road, Bristol, BS3 2, United Kingdom",
    "meta": "746"
  }, {
    "name": "Sainsbury's",
    "longitude": -1.878389,
    "latitude": 50.7448951,
    "address": "538 Wimborne Road, Bournemouth, BH9 2AW, United Kingdom",
    "meta": "747"
  }, {
    "name": "Sainsbury's",
    "longitude": -1.4828489,
    "latitude": 51.7794682,
    "address": "Station Lane, Witney, OX28 4, United Kingdom",
    "meta": "748"
  }, {
    "name": "Sainsbury's",
    "longitude": -0.5596081,
    "latitude": 51.3185015,
    "address": "Commercial Way, Woking, GU21 6, United Kingdom",
    "meta": "749"
  }, {
    "name": "Sainsbury's",
    "longitude": -0.5517376,
    "latitude": 51.3033134,
    "address": "Kingfield Road, Woking, GU22 9, United Kingdom",
    "meta": "750"
  }, {
    "name": "Sainsbury's",
    "longitude": -2.123011,
    "latitude": 52.5833648,
    "address": "St George's Parade, Wolverhampton, WV2 1, United Kingdom",
    "meta": "751"
  }, {
    "name": "Sainsbury's",
    "longitude": -0.1046047,
    "latitude": 51.5915293,
    "address": "37 High Road, London, N22 6BQ, United Kingdom",
    "meta": "752"
  }, {
    "name": "Sainsbury's",
    "longitude": -0.4370374,
    "latitude": 51.7797736,
    "address": "4 Shenley Road, Hemel Hempstead, HP2 7, United Kingdom",
    "meta": "753"
  }, {
    "name": "Sainsbury's",
    "longitude": -4.2730233,
    "latitude": 55.8685964,
    "address": "68 Woodlands Road, Glasgow, G3 6HA, United Kingdom",
    "meta": "754"
  }, {
    "name": "Sainsbury's",
    "longitude": -2.8647279,
    "latitude": 53.374834,
    "address": "James Road, Liverpool, L25 5, United Kingdom",
    "meta": "755"
  }, {
    "name": "Sainsbury's",
    "longitude": 0.0633232,
    "latitude": 51.4904524,
    "address": "Monk Street, London, SE18 6, United Kingdom",
    "meta": "756"
  }, {
    "name": "Sainsbury's",
    "longitude": -1.9054602,
    "latitude": 51.5423324,
    "address": "56 Wood Street, Swindon, SN4 7, United Kingdom",
    "meta": "757"
  }, {
    "name": "Sainsbury's",
    "longitude": -0.2388146,
    "latitude": 51.3771528,
    "address": "21 Central Road, Worcester Park, KT4 8, United Kingdom",
    "meta": "758"
  }, {
    "name": "Sainsbury's",
    "longitude": -2.2334097,
    "latitude": 52.1880603,
    "address": "Swanpool Walk, Worcester, WR2 4, United Kingdom",
    "meta": "759"
  }, {
    "name": "Sainsbury's",
    "longitude": -1.1460511,
    "latitude": 53.3107967,
    "address": "High Grounds Road, Worksop, S80 3, United Kingdom",
    "meta": "760"
  }, {
    "name": "Sainsbury's",
    "longitude": -1.1291066,
    "latitude": 53.3037464,
    "address": "84 Newcastle Avenue, Worksop, S80 1LX, United Kingdom",
    "meta": "761"
  }, {
    "name": "Sainsbury's",
    "longitude": -2.9092112,
    "latitude": 51.3617057,
    "address": "Weston-super-Mare, BS22 6, United Kingdom",
    "meta": "762"
  }, {
    "name": "Sainsbury's",
    "longitude": -3.0061853,
    "latitude": 53.0568254,
    "address": "Wrexham, LL11 2, United Kingdom",
    "meta": "763"
  }, {
    "name": "Sainsbury's",
    "longitude": -1.8270252,
    "latitude": 52.5362386,
    "address": "368 Birmingham Road, Sutton Coldfield, B72 1YH, United Kingdom",
    "meta": "764"
  }, {
    "name": "Sainsbury's",
    "longitude": -1.3548747,
    "latitude": 54.5099774,
    "address": "76 High Street, Yarm, TS15 9, United Kingdom",
    "meta": "765"
  }, {
    "name": "Sainsbury's",
    "longitude": -1.692125,
    "latitude": 53.8701926,
    "address": "86 Queensway, Leeds, LS19 7PL, United Kingdom",
    "meta": "766"
  }, {
    "name": "Sainsbury's",
    "longitude": -1.8208282,
    "latitude": 53.6577086,
    "address": "133 Acre Street, Huddersfield, HD3 3EL, United Kingdom",
    "meta": "767"
  }, {
    "name": "Sainsbury's",
    "longitude": -0.4060969,
    "latitude": 53.7444736,
    "address": "990 Anlaby Road, Hull, HU4 6, United Kingdom",
    "meta": "768"
  }, {
    "name": "Sainsbury's",
    "longitude": 0.3989163,
    "latitude": 52.7551761,
    "address": "Kings Lynn, PE30 1, United Kingdom",
    "meta": "769"
  }, {
    "name": "Sainsbury's",
    "longitude": -0.1439151,
    "latitude": 51.4968646,
    "address": "156 Victoria Street, London, SW1W 5LB, United Kingdom",
    "meta": "770"
  }, {
    "name": "Sainsbury's",
    "longitude": -0.1928176,
    "latitude": 51.6976201,
    "address": "2 Station Close, Potters Bar, EN6 1AU, United Kingdom",
    "meta": "771"
  }, {
    "name": "Sainsbury's",
    "longitude": -0.4125487,
    "latitude": 54.2781746,
    "address": "25 Commercial Street, Scarborough, YO12 5EL, United Kingdom",
    "meta": "772"
  }]
}